{
"type": "FeatureCollection",
                                                                                
"features": [
{ "type": "Feature", "properties": { "wfpid": 241, "name": "Dioungani", "status": "Unknown", "customs": "Unknown", "iso3_1": "MLI", "iso3_2": "BFA", "locprecision": "Unknown", "latitude": "14.31402", "longitude": "-2.73830", "wfpregion": "OMD", "lastcheckdate": null, "remarks": null, "source": null, "createdate": "2013-09-08T00:00:00", "updatedate": "2013-09-08T00:00:00" }, "geometry": { "type": "Point", "coordinates": [ -2.7383, 14.31402 ] } }
,
{ "type": "Feature", "properties": { "wfpid": 243, "name": "Tengrela", "status": "Unknown", "customs": "Unknown", "iso3_1": "CIV", "iso3_2": "MLI", "locprecision": "Unknown", "latitude": "10.56405", "longitude": "-6.42651", "wfpregion": "OMD", "lastcheckdate": null, "remarks": null, "source": null, "createdate": "2013-09-08T00:00:00", "updatedate": "2013-09-08T00:00:00" }, "geometry": { "type": "Point", "coordinates": [ -6.42651, 10.56405 ] } }
,
{ "type": "Feature", "properties": { "wfpid": 244, "name": "Ouenkoro", "status": "Unknown", "customs": "Unknown", "iso3_1": "MLI", "iso3_2": "BFA", "locprecision": "Unknown", "latitude": "13.36781", "longitude": "-3.83779", "wfpregion": "OMD", "lastcheckdate": null, "remarks": null, "source": null, "createdate": "2013-09-08T00:00:00", "updatedate": "2013-09-08T00:00:00" }, "geometry": { "type": "Point", "coordinates": [ -3.83779, 13.36781 ] } }
,
{ "type": "Feature", "properties": { "wfpid": 242, "name": "Bafarara-Kankossa", "status": "Unknown", "customs": "Unknown", "iso3_1": "MRT", "iso3_2": "MLI", "locprecision": "Unknown", "latitude": "15.54457", "longitude": "-11.59493", "wfpregion": "OMD", "lastcheckdate": null, "remarks": null, "source": null, "createdate": "2013-09-08T00:00:00", "updatedate": "2013-09-08T00:00:00" }, "geometry": { "type": "Point", "coordinates": [ -11.59493, 15.54457 ] } }
,
{ "type": "Feature", "properties": { "wfpid": 245, "name": "Gogui", "status": "Unknown", "customs": "Unknown", "iso3_1": "MRT", "iso3_2": "MLI", "locprecision": "Unknown", "latitude": "15.69600", "longitude": "-9.31938", "wfpregion": "OMD", "lastcheckdate": null, "remarks": null, "source": null, "createdate": "2013-09-08T00:00:00", "updatedate": "2013-09-08T00:00:00" }, "geometry": { "type": "Point", "coordinates": [ -9.31938, 15.696 ] } }
,
{ "type": "Feature", "properties": { "wfpid": 236, "name": "Koro", "status": "Open", "customs": "Yes", "iso3_1": "MLI", "iso3_2": "BFA", "locprecision": "Unknown", "latitude": "13.91364", "longitude": "-2.86859", "wfpregion": "OMD", "lastcheckdate": null, "remarks": null, "source": null, "createdate": "2013-09-08T00:00:00", "updatedate": "2013-09-08T00:00:00" }, "geometry": { "type": "Point", "coordinates": [ -2.86859, 13.91364 ] } }
,
{ "type": "Feature", "properties": { "wfpid": 231, "name": "Manankoro", "status": "Unknown", "customs": "Unknown", "iso3_1": "CIV", "iso3_2": "MLI", "locprecision": "Unknown", "latitude": "10.44569", "longitude": "-7.45154", "wfpregion": "OMD", "lastcheckdate": null, "remarks": null, "source": null, "createdate": "2013-09-08T00:00:00", "updatedate": "2013-09-08T00:00:00" }, "geometry": { "type": "Point", "coordinates": [ -7.45154, 10.44569 ] } }
,
{ "type": "Feature", "properties": { "wfpid": 232, "name": "Banancoro", "status": "Unknown", "customs": "Unknown", "iso3_1": "MLI", "iso3_2": "GIN", "locprecision": "Unknown", "latitude": "11.63449", "longitude": "-8.75994", "wfpregion": "OMD", "lastcheckdate": null, "remarks": null, "source": null, "createdate": "2013-09-08T00:00:00", "updatedate": "2013-09-08T00:00:00" }, "geometry": { "type": "Point", "coordinates": [ -8.75994, 11.63449 ] } }
,
{ "type": "Feature", "properties": { "wfpid": 234, "name": "Fassale-Nampala", "status": "Unknown", "customs": "Unknown", "iso3_1": "MLI", "iso3_2": "MRT", "locprecision": "Unknown", "latitude": "15.49827", "longitude": "-5.50690", "wfpregion": "OMD", "lastcheckdate": null, "remarks": null, "source": null, "createdate": "2013-09-08T00:00:00", "updatedate": "2013-09-08T00:00:00" }, "geometry": { "type": "Point", "coordinates": [ -5.5069, 15.49827 ] } }
,
{ "type": "Feature", "properties": { "wfpid": 235, "name": "N'Tillit", "status": "Unknown", "customs": "Unknown", "iso3_1": "MLI", "iso3_2": "BFA", "locprecision": "Unknown", "latitude": "15.01467", "longitude": "-0.39529", "wfpregion": "OMD", "lastcheckdate": null, "remarks": null, "source": null, "createdate": "2013-09-08T00:00:00", "updatedate": "2013-09-08T00:00:00" }, "geometry": { "type": "Point", "coordinates": [ -0.39529, 15.01467 ] } }
,
{ "type": "Feature", "properties": { "wfpid": 237, "name": "Tessit", "status": "Unknown", "customs": "Unknown", "iso3_1": "MLI", "iso3_2": "NER", "locprecision": "Unknown", "latitude": "14.97736", "longitude": "0.38560", "wfpregion": "OMD", "lastcheckdate": null, "remarks": null, "source": null, "createdate": "2013-09-08T00:00:00", "updatedate": "2013-09-08T00:00:00" }, "geometry": { "type": "Point", "coordinates": [ 0.3856, 14.97736 ] } }
,
{ "type": "Feature", "properties": { "wfpid": 238, "name": "Baye", "status": "Unknown", "customs": "Unknown", "iso3_1": "MLI", "iso3_2": "BFA", "locprecision": "Unknown", "latitude": "13.55646", "longitude": "-3.28109", "wfpregion": "OMD", "lastcheckdate": null, "remarks": null, "source": null, "createdate": "2013-09-08T00:00:00", "updatedate": "2013-09-08T00:00:00" }, "geometry": { "type": "Point", "coordinates": [ -3.28109, 13.55646 ] } }
,
{ "type": "Feature", "properties": { "wfpid": 239, "name": "Mondoro", "status": "Unknown", "customs": "Unknown", "iso3_1": "MLI", "iso3_2": "BFA", "locprecision": "Unknown", "latitude": "14.49143", "longitude": "-1.91347", "wfpregion": "OMD", "lastcheckdate": null, "remarks": null, "source": null, "createdate": "2013-09-08T00:00:00", "updatedate": "2013-09-08T00:00:00" }, "geometry": { "type": "Point", "coordinates": [ -1.91347, 14.49143 ] } }
,
{ "type": "Feature", "properties": { "wfpid": 240, "name": "Dinangourou", "status": "Unknown", "customs": "Unknown", "iso3_1": "MLI", "iso3_2": "BFA", "locprecision": "Unknown", "latitude": "14.44921", "longitude": "-2.24580", "wfpregion": "OMD", "lastcheckdate": null, "remarks": null, "source": null, "createdate": "2013-09-08T00:00:00", "updatedate": "2013-09-08T00:00:00" }, "geometry": { "type": "Point", "coordinates": [ -2.2458, 14.44921 ] } }
,
{ "type": "Feature", "properties": { "wfpid": 246, "name": "Sahela", "status": "Closed", "customs": "Unknown", "iso3_1": "IRQ", "iso3_2": "SYR", "locprecision": "Accurate", "latitude": "37.04514", "longitude": "42.37707", "wfpregion": "OMC", "lastcheckdate": null, "remarks": null, "source": null, "createdate": "2014-01-07T09:28:59.177", "updatedate": "2014-01-07T09:32:21.427" }, "geometry": { "type": "Point", "coordinates": [ 42.37707048, 37.04514153 ] } }
,
{ "type": "Feature", "properties": { "wfpid": 46, "name": "Lavumisa", "status": "Open", "customs": "Yes", "iso3_1": "SWZ", "iso3_2": "ZAF", "locprecision": "Unknown", "latitude": "-27.30834", "longitude": "31.89304", "wfpregion": "OMJ", "lastcheckdate": null, "remarks": null, "source": null, "createdate": "2013-01-01T00:00:00", "updatedate": null }, "geometry": { "type": "Point", "coordinates": [ 31.89304, -27.30834 ] } }
,
{ "type": "Feature", "properties": { "wfpid": 97, "name": "Mchinji", "status": "Open", "customs": "Yes", "iso3_1": "ZMB", "iso3_2": "MWI", "locprecision": "Unknown", "latitude": "-13.79994", "longitude": "32.88021", "wfpregion": "OMJ", "lastcheckdate": null, "remarks": null, "source": null, "createdate": "2013-01-01T00:00:00", "updatedate": null }, "geometry": { "type": "Point", "coordinates": [ 32.88021, -13.79994 ] } }
,
{ "type": "Feature", "properties": { "wfpid": 98, "name": "Chirundu", "status": "Open", "customs": "Yes", "iso3_1": "ZWE", "iso3_2": "ZMB", "locprecision": "Unknown", "latitude": "-16.04493", "longitude": "28.86913", "wfpregion": "OMJ", "lastcheckdate": null, "remarks": null, "source": null, "createdate": "2013-01-01T00:00:00", "updatedate": null }, "geometry": { "type": "Point", "coordinates": [ 28.86913, -16.04493 ] } }
,
{ "type": "Feature", "properties": { "wfpid": 99, "name": "Dasht-e-Qala", "status": "Open", "customs": "Yes", "iso3_1": "AFG", "iso3_2": "TJK", "locprecision": "Unknown", "latitude": "37.51420", "longitude": "70.44013", "wfpregion": "OMB", "lastcheckdate": null, "remarks": null, "source": null, "createdate": "2013-01-01T00:00:00", "updatedate": null }, "geometry": { "type": "Point", "coordinates": [ 70.44013, 37.5142 ] } }
,
{ "type": "Feature", "properties": { "wfpid": 100, "name": "Panji-Poyon", "status": "Open", "customs": "Yes", "iso3_1": "TJK", "iso3_2": "AFG", "locprecision": "Unknown", "latitude": "37.19661", "longitude": "68.57983", "wfpregion": "OMC", "lastcheckdate": null, "remarks": null, "source": null, "createdate": "2013-01-01T00:00:00", "updatedate": null }, "geometry": { "type": "Point", "coordinates": [ 68.57983, 37.19661 ] } }
,
{ "type": "Feature", "properties": { "wfpid": 101, "name": "Manyovu", "status": "Open", "customs": "Yes", "iso3_1": "TZA", "iso3_2": "BDI", "locprecision": "Unknown", "latitude": "-4.47122", "longitude": "29.83861", "wfpregion": "OMJ", "lastcheckdate": null, "remarks": null, "source": null, "createdate": "2013-01-01T00:00:00", "updatedate": null }, "geometry": { "type": "Point", "coordinates": [ 29.83861, -4.47122 ] } }
,
{ "type": "Feature", "properties": { "wfpid": 102, "name": "Tunduma", "status": "Open", "customs": "Yes", "iso3_1": "TZA", "iso3_2": "ZMB", "locprecision": "Unknown", "latitude": "-9.30773", "longitude": "32.76378", "wfpregion": "OMJ", "lastcheckdate": null, "remarks": null, "source": null, "createdate": "2013-01-01T00:00:00", "updatedate": null }, "geometry": { "type": "Point", "coordinates": [ 32.76378, -9.30773 ] } }
,
{ "type": "Feature", "properties": { "wfpid": 103, "name": "Horohoro", "status": "Open", "customs": "Yes", "iso3_1": "TZA", "iso3_2": "KEN", "locprecision": "Unknown", "latitude": "-4.66667", "longitude": "39.10000", "wfpregion": "OMJ", "lastcheckdate": null, "remarks": null, "source": null, "createdate": "2013-01-01T00:00:00", "updatedate": null }, "geometry": { "type": "Point", "coordinates": [ 39.1, -4.66667 ] } }
,
{ "type": "Feature", "properties": { "wfpid": 104, "name": "Duruqsi", "status": "Open", "customs": "Yes", "iso3_1": "ETH", "iso3_2": "SOM", "locprecision": "Unknown", "latitude": "8.51770", "longitude": "45.46147", "wfpregion": "OMN", "lastcheckdate": null, "remarks": null, "source": null, "createdate": "2013-01-01T00:00:00", "updatedate": null }, "geometry": { "type": "Point", "coordinates": [ 45.46147, 8.5177 ] } }
,
{ "type": "Feature", "properties": { "wfpid": 133, "name": "Torkham", "status": "Open", "customs": "Yes", "iso3_1": "AFG", "iso3_2": "PAK", "locprecision": "Unknown", "latitude": "34.12417", "longitude": "71.08944", "wfpregion": "OMB", "lastcheckdate": null, "remarks": null, "source": null, "createdate": "2013-01-01T00:00:00", "updatedate": null }, "geometry": { "type": "Point", "coordinates": [ 71.08944, 34.12417 ] } }
,
{ "type": "Feature", "properties": { "wfpid": 134, "name": "Chaman", "status": "Open", "customs": "Yes", "iso3_1": "PAK", "iso3_2": "AFG", "locprecision": "Unknown", "latitude": "30.92225", "longitude": "66.44475", "wfpregion": "OMB", "lastcheckdate": null, "remarks": null, "source": null, "createdate": "2013-01-01T00:00:00", "updatedate": null }, "geometry": { "type": "Point", "coordinates": [ 66.44475, 30.92225 ] } }
,
{ "type": "Feature", "properties": { "wfpid": 135, "name": "Aqina", "status": "Open", "customs": "Yes", "iso3_1": "AFG", "iso3_2": "TKM", "locprecision": "Unknown", "latitude": "37.11667", "longitude": "65.16667", "wfpregion": "OMB", "lastcheckdate": null, "remarks": null, "source": null, "createdate": "2013-01-01T00:00:00", "updatedate": null }, "geometry": { "type": "Point", "coordinates": [ 65.16667, 37.11667 ] } }
,
{ "type": "Feature", "properties": { "wfpid": 136, "name": "Aylaq-i-Parwizak", "status": "Open", "customs": "Yes", "iso3_1": "TJK", "iso3_2": "AFG", "locprecision": "Unknown", "latitude": "38.05306", "longitude": "71.30694", "wfpregion": "OMC", "lastcheckdate": null, "remarks": null, "source": null, "createdate": "2013-01-01T00:00:00", "updatedate": null }, "geometry": { "type": "Point", "coordinates": [ 71.30694, 38.05306 ] } }
,
{ "type": "Feature", "properties": { "wfpid": 137, "name": "Khyber Pass", "status": "Open", "customs": "Yes", "iso3_1": "AFG", "iso3_2": "PAK", "locprecision": "Unknown", "latitude": "34.12222", "longitude": "71.09361", "wfpregion": "OMB", "lastcheckdate": null, "remarks": null, "source": null, "createdate": "2013-01-01T00:00:00", "updatedate": null }, "geometry": { "type": "Point", "coordinates": [ 71.09361, 34.12222 ] } }
,
{ "type": "Feature", "properties": { "wfpid": 138, "name": "Naveh", "status": "Open", "customs": "Yes", "iso3_1": "AFG", "iso3_2": "PAK", "locprecision": "Unknown", "latitude": "34.73333", "longitude": "71.15000", "wfpregion": "OMB", "lastcheckdate": null, "remarks": null, "source": null, "createdate": "2013-01-01T00:00:00", "updatedate": null }, "geometry": { "type": "Point", "coordinates": [ 71.15, 34.73333 ] } }
,
{ "type": "Feature", "properties": { "wfpid": 139, "name": "Spingai", "status": "Open", "customs": "Yes", "iso3_1": "AFG", "iso3_2": "PAK", "locprecision": "Unknown", "latitude": "31.67274", "longitude": "67.96828", "wfpregion": "OMB", "lastcheckdate": null, "remarks": null, "source": null, "createdate": "2013-01-01T00:00:00", "updatedate": null }, "geometry": { "type": "Point", "coordinates": [ 67.96828, 31.67274 ] } }
,
{ "type": "Feature", "properties": { "wfpid": 140, "name": "Tekay", "status": "Open", "customs": "Yes", "iso3_1": "AFG", "iso3_2": "PAK", "locprecision": "Unknown", "latitude": "33.62703", "longitude": "70.11566", "wfpregion": "OMB", "lastcheckdate": null, "remarks": null, "source": null, "createdate": "2013-01-01T00:00:00", "updatedate": null }, "geometry": { "type": "Point", "coordinates": [ 70.11566, 33.62703 ] } }
,
{ "type": "Feature", "properties": { "wfpid": 141, "name": "Eslamqal'a", "status": "Open", "customs": "Yes", "iso3_1": "AFG", "iso3_2": "IRN", "locprecision": "Unknown", "latitude": "34.66667", "longitude": "61.06667", "wfpregion": "OMB", "lastcheckdate": null, "remarks": null, "source": null, "createdate": "2013-01-01T00:00:00", "updatedate": null }, "geometry": { "type": "Point", "coordinates": [ 61.06667, 34.66667 ] } }
,
{ "type": "Feature", "properties": { "wfpid": 105, "name": "Nau", "status": "Open", "customs": "Yes", "iso3_1": "TJK", "iso3_2": "UZB", "locprecision": "Unknown", "latitude": "40.15361", "longitude": "69.38761", "wfpregion": "OMC", "lastcheckdate": null, "remarks": null, "source": null, "createdate": "2013-01-01T00:00:00", "updatedate": null }, "geometry": { "type": "Point", "coordinates": [ 69.38761, 40.15361 ] } }
,
{ "type": "Feature", "properties": { "wfpid": 120, "name": "Mgabi", "status": "Open", "customs": "Yes", "iso3_1": "ZMB", "iso3_2": "MWI", "locprecision": "Unknown", "latitude": "-13.73333", "longitude": "32.80000", "wfpregion": "OMJ", "lastcheckdate": null, "remarks": null, "source": null, "createdate": "2013-01-01T00:00:00", "updatedate": null }, "geometry": { "type": "Point", "coordinates": [ 32.8, -13.73333 ] } }
,
{ "type": "Feature", "properties": { "wfpid": 121, "name": "Galdogob", "status": "Open", "customs": "Yes", "iso3_1": "SOM", "iso3_2": "ETH", "locprecision": "Unknown", "latitude": "7.05755", "longitude": "47.13494", "wfpregion": "OMN", "lastcheckdate": null, "remarks": null, "source": null, "createdate": "2013-01-01T00:00:00", "updatedate": null }, "geometry": { "type": "Point", "coordinates": [ 47.13494, 7.05755 ] } }
,
{ "type": "Feature", "properties": { "wfpid": 122, "name": "Dhobley", "status": "Open", "customs": "Yes", "iso3_1": "SOM", "iso3_2": "KEN", "locprecision": "Unknown", "latitude": "0.40627", "longitude": "41.01238", "wfpregion": "OMN", "lastcheckdate": null, "remarks": null, "source": null, "createdate": "2013-01-01T00:00:00", "updatedate": null }, "geometry": { "type": "Point", "coordinates": [ 41.01238, 0.40627 ] } }
,
{ "type": "Feature", "properties": { "wfpid": 123, "name": "Lobatse", "status": "Open", "customs": "Yes", "iso3_1": "BWA", "iso3_2": "ZAF", "locprecision": "Unknown", "latitude": "-25.22774", "longitude": "25.67739", "wfpregion": "OMJ", "lastcheckdate": null, "remarks": null, "source": null, "createdate": "2013-01-01T00:00:00", "updatedate": null }, "geometry": { "type": "Point", "coordinates": [ 25.67739, -25.22774 ] } }
,
{ "type": "Feature", "properties": { "wfpid": 124, "name": "Nyamapanda", "status": "Open", "customs": "Yes", "iso3_1": "ZWE", "iso3_2": "MOZ", "locprecision": "Unknown", "latitude": "-16.95990", "longitude": "32.85511", "wfpregion": "OMJ", "lastcheckdate": null, "remarks": null, "source": null, "createdate": "2013-01-01T00:00:00", "updatedate": null }, "geometry": { "type": "Point", "coordinates": [ 32.85511, -16.9599 ] } }
,
{ "type": "Feature", "properties": { "wfpid": 125, "name": "Mandera", "status": "Open", "customs": "Yes", "iso3_1": "KEN", "iso3_2": "SOM", "locprecision": "Unknown", "latitude": "3.93454", "longitude": "41.86061", "wfpregion": "OMN", "lastcheckdate": null, "remarks": null, "source": null, "createdate": "2013-01-01T00:00:00", "updatedate": null }, "geometry": { "type": "Point", "coordinates": [ 41.86061, 3.93454 ] } }
,
{ "type": "Feature", "properties": { "wfpid": 126, "name": "Kalatae Nazarkhan", "status": "Open", "customs": "Yes", "iso3_1": "AFG", "iso3_2": "IRN", "locprecision": "Unknown", "latitude": "33.48583", "longitude": "60.87611", "wfpregion": "OMB", "lastcheckdate": null, "remarks": null, "source": null, "createdate": "2013-01-01T00:00:00", "updatedate": null }, "geometry": { "type": "Point", "coordinates": [ 60.87611, 33.48583 ] } }
,
{ "type": "Feature", "properties": { "wfpid": 127, "name": "Patan", "status": "Open", "customs": "Yes", "iso3_1": "PAK", "iso3_2": "AFG", "locprecision": "Unknown", "latitude": "33.81889", "longitude": "69.94222", "wfpregion": "OMB", "lastcheckdate": null, "remarks": null, "source": null, "createdate": "2013-01-01T00:00:00", "updatedate": null }, "geometry": { "type": "Point", "coordinates": [ 69.94222, 33.81889 ] } }
,
{ "type": "Feature", "properties": { "wfpid": 128, "name": "Ravand", "status": "Open", "customs": "Yes", "iso3_1": "AFG", "iso3_2": "TJK", "locprecision": "Unknown", "latitude": "38.04583", "longitude": "71.28917", "wfpregion": "OMB", "lastcheckdate": null, "remarks": null, "source": null, "createdate": "2013-01-01T00:00:00", "updatedate": null }, "geometry": { "type": "Point", "coordinates": [ 71.28917, 38.04583 ] } }
,
{ "type": "Feature", "properties": { "wfpid": 129, "name": "Gizil Qala", "status": "Open", "customs": "Yes", "iso3_1": "AFG", "iso3_2": "TJK", "locprecision": "Unknown", "latitude": "37.19028", "longitude": "68.60667", "wfpregion": "OMB", "lastcheckdate": null, "remarks": null, "source": null, "createdate": "2013-01-01T00:00:00", "updatedate": null }, "geometry": { "type": "Point", "coordinates": [ 68.60667, 37.19028 ] } }
,
{ "type": "Feature", "properties": { "wfpid": 131, "name": "Ishkhashim", "status": "Open", "customs": "Yes", "iso3_1": "AFG", "iso3_2": "TJK", "locprecision": "Unknown", "latitude": "36.71347", "longitude": "71.56323", "wfpregion": "OMB", "lastcheckdate": null, "remarks": null, "source": null, "createdate": "2013-01-01T00:00:00", "updatedate": null }, "geometry": { "type": "Point", "coordinates": [ 71.56323, 36.71347 ] } }
,
{ "type": "Feature", "properties": { "wfpid": 132, "name": "Sherkhon Bandar", "status": "Open", "customs": "Yes", "iso3_1": "AFG", "iso3_2": "TJK", "locprecision": "Unknown", "latitude": "37.15630", "longitude": "68.68044", "wfpregion": "OMB", "lastcheckdate": null, "remarks": null, "source": null, "createdate": "2013-01-01T00:00:00", "updatedate": null }, "geometry": { "type": "Point", "coordinates": [ 68.68044, 37.1563 ] } }
,
{ "type": "Feature", "properties": { "wfpid": 10, "name": "Korduan", "status": "Open", "customs": "Yes", "iso3_1": "KAZ", "iso3_2": "RUS", "locprecision": "Unknown", "latitude": "46.65026", "longitude": "48.53481", "wfpregion": "OMC", "lastcheckdate": null, "remarks": null, "source": null, "createdate": "2013-01-01T00:00:00", "updatedate": null }, "geometry": { "type": "Point", "coordinates": [ 48.53481, 46.65026 ] } }
,
{ "type": "Feature", "properties": { "wfpid": 142, "name": "Pedernales", "status": "Open", "customs": "Yes", "iso3_1": "DOM", "iso3_2": "HTI", "locprecision": "Unknown", "latitude": "18.03912", "longitude": "-71.74406", "wfpregion": "OMP", "lastcheckdate": null, "remarks": null, "source": null, "createdate": "2013-01-01T00:00:00", "updatedate": null }, "geometry": { "type": "Point", "coordinates": [ -71.74406, 18.03912 ] } }
,
{ "type": "Feature", "properties": { "wfpid": 143, "name": "Ouanaminthe", "status": "Open", "customs": "Yes", "iso3_1": "HTI", "iso3_2": "DOM", "locprecision": "Unknown", "latitude": "19.54724", "longitude": "-71.72679", "wfpregion": "OMP", "lastcheckdate": null, "remarks": null, "source": null, "createdate": "2013-01-01T00:00:00", "updatedate": null }, "geometry": { "type": "Point", "coordinates": [ -71.72679, 19.54724 ] } }
,
{ "type": "Feature", "properties": { "wfpid": 144, "name": "Kerem Shalom (Karem Abu Salem)", "status": "Open", "customs": "Yes", "iso3_1": "EGY", "iso3_2": "ISR", "locprecision": "Unknown", "latitude": "31.22522", "longitude": "34.26627", "wfpregion": "OMC", "lastcheckdate": null, "remarks": null, "source": null, "createdate": "2013-01-01T00:00:00", "updatedate": null }, "geometry": { "type": "Point", "coordinates": [ 34.26627, 31.22522 ] } }
,
{ "type": "Feature", "properties": { "wfpid": 9, "name": "Tezebazar", "status": "Open", "customs": "Yes", "iso3_1": "TKM", "iso3_2": "UZB", "locprecision": "Unknown", "latitude": "41.79648", "longitude": "60.07226", "wfpregion": "OMC", "lastcheckdate": null, "remarks": null, "source": null, "createdate": "2013-01-01T00:00:00", "updatedate": null }, "geometry": { "type": "Point", "coordinates": [ 60.07226, 41.79648 ] } }
,
{ "type": "Feature", "properties": { "wfpid": 165, "name": "Dolow", "status": "Open", "customs": "Yes", "iso3_1": "ETH", "iso3_2": "SOM", "locprecision": "Unknown", "latitude": "4.18761", "longitude": "42.08810", "wfpregion": "OMN", "lastcheckdate": null, "remarks": null, "source": null, "createdate": "2013-01-01T00:00:00", "updatedate": null }, "geometry": { "type": "Point", "coordinates": [ 42.0881, 4.18761 ] } }
,
{ "type": "Feature", "properties": { "wfpid": 87, "name": "Kolbio", "status": "Open", "customs": "Yes", "iso3_1": "KEN", "iso3_2": "SOM", "locprecision": "Unknown", "latitude": "-1.14491", "longitude": "41.20078", "wfpregion": "OMN", "lastcheckdate": null, "remarks": null, "source": null, "createdate": "2013-01-01T00:00:00", "updatedate": null }, "geometry": { "type": "Point", "coordinates": [ 41.20078, -1.14491 ] } }
,
{ "type": "Feature", "properties": { "wfpid": 166, "name": "Gebiley", "status": "Open", "customs": "Yes", "iso3_1": "ETH", "iso3_2": "SOM", "locprecision": "Unknown", "latitude": "9.61398", "longitude": "43.30419", "wfpregion": "OMN", "lastcheckdate": null, "remarks": null, "source": null, "createdate": "2013-01-01T00:00:00", "updatedate": null }, "geometry": { "type": "Point", "coordinates": [ 43.30419, 9.61398 ] } }
,
{ "type": "Feature", "properties": { "wfpid": 172, "name": "Gatuna", "status": "Open", "customs": "Yes", "iso3_1": "RWA", "iso3_2": "UGA", "locprecision": "Unknown", "latitude": "-1.43500", "longitude": "30.02111", "wfpregion": "OMN", "lastcheckdate": null, "remarks": null, "source": null, "createdate": "2013-01-01T00:00:00", "updatedate": null }, "geometry": { "type": "Point", "coordinates": [ 30.02111, -1.435 ] } }
,
{ "type": "Feature", "properties": { "wfpid": 173, "name": "Kidira", "status": "Open", "customs": "Yes", "iso3_1": "MLI", "iso3_2": "SEN", "locprecision": "Unknown", "latitude": "14.45668", "longitude": "-12.21659", "wfpregion": "OMD", "lastcheckdate": null, "remarks": null, "source": null, "createdate": "2013-01-01T00:00:00", "updatedate": null }, "geometry": { "type": "Point", "coordinates": [ -12.21659, 14.45668 ] } }
,
{ "type": "Feature", "properties": { "wfpid": 174, "name": "Malaba", "status": "Open", "customs": "Yes", "iso3_1": "KEN", "iso3_2": "UGA", "locprecision": "Unknown", "latitude": "0.63457", "longitude": "34.27560", "wfpregion": "OMN", "lastcheckdate": null, "remarks": null, "source": null, "createdate": "2013-01-01T00:00:00", "updatedate": null }, "geometry": { "type": "Point", "coordinates": [ 34.2756, 0.63457 ] } }
,
{ "type": "Feature", "properties": { "wfpid": 175, "name": "Rusumo", "status": "Open", "customs": "Yes", "iso3_1": "RWA", "iso3_2": "TZA", "locprecision": "Unknown", "latitude": "-2.27050", "longitude": "30.67670", "wfpregion": "OMN", "lastcheckdate": null, "remarks": null, "source": null, "createdate": "2013-01-01T00:00:00", "updatedate": null }, "geometry": { "type": "Point", "coordinates": [ 30.6767, -2.2705 ] } }
,
{ "type": "Feature", "properties": { "wfpid": 176, "name": "Ghadamis", "status": "Open", "customs": "Yes", "iso3_1": "LBY", "iso3_2": "DZA", "locprecision": "Unknown", "latitude": "30.13366", "longitude": "9.50072", "wfpregion": "OMC", "lastcheckdate": null, "remarks": null, "source": null, "createdate": "2013-01-01T00:00:00", "updatedate": null }, "geometry": { "type": "Point", "coordinates": [ 9.50072, 30.13366 ] } }
,
{ "type": "Feature", "properties": { "wfpid": 177, "name": "Ra's Ajdir", "status": "Open", "customs": "Yes", "iso3_1": "LBY", "iso3_2": "TUN", "locprecision": "Unknown", "latitude": "33.15000", "longitude": "11.56667", "wfpregion": "OMC", "lastcheckdate": null, "remarks": null, "source": null, "createdate": "2013-01-01T00:00:00", "updatedate": null }, "geometry": { "type": "Point", "coordinates": [ 11.56667, 33.15 ] } }
,
{ "type": "Feature", "properties": { "wfpid": 178, "name": "Masnaa-Jdeidet Yabous", "status": "Open", "customs": "Yes", "iso3_1": "LBN", "iso3_2": "SYR", "locprecision": "Unknown", "latitude": "33.67474", "longitude": "35.96521", "wfpregion": "OMC", "lastcheckdate": null, "remarks": null, "source": null, "createdate": "2013-01-01T00:00:00", "updatedate": null }, "geometry": { "type": "Point", "coordinates": [ 35.96521, 33.67474 ] } }
,
{ "type": "Feature", "properties": { "wfpid": 63, "name": "Ebebiyin", "status": "Open", "customs": "Yes", "iso3_1": "GNQ", "iso3_2": "GAB", "locprecision": "Unknown", "latitude": "2.15251", "longitude": "11.33035", "wfpregion": "OMD", "lastcheckdate": null, "remarks": null, "source": null, "createdate": "2013-01-01T00:00:00", "updatedate": null }, "geometry": { "type": "Point", "coordinates": [ 11.33035, 2.15251 ] } }
,
{ "type": "Feature", "properties": { "wfpid": 179, "name": "Gambaru", "status": "Open", "customs": "Yes", "iso3_1": "CMR", "iso3_2": "NGA", "locprecision": "Unknown", "latitude": "12.37066", "longitude": "14.21731", "wfpregion": "OMD", "lastcheckdate": null, "remarks": null, "source": null, "createdate": "2013-01-01T00:00:00", "updatedate": null }, "geometry": { "type": "Point", "coordinates": [ 14.21731, 12.37066 ] } }
,
{ "type": "Feature", "properties": { "wfpid": 180, "name": "Malanville", "status": "Open", "customs": "Yes", "iso3_1": "BEN", "iso3_2": "NER", "locprecision": "Unknown", "latitude": "11.86846", "longitude": "3.38989", "wfpregion": "OMD", "lastcheckdate": null, "remarks": null, "source": null, "createdate": "2013-01-01T00:00:00", "updatedate": null }, "geometry": { "type": "Point", "coordinates": [ 3.38989, 11.86846 ] } }
,
{ "type": "Feature", "properties": { "wfpid": 181, "name": "Adre", "status": "Open", "customs": "Yes", "iso3_1": "TCD", "iso3_2": "SDN", "locprecision": "Unknown", "latitude": "13.46667", "longitude": "22.20000", "wfpregion": "OMD", "lastcheckdate": null, "remarks": null, "source": null, "createdate": "2013-01-01T00:00:00", "updatedate": null }, "geometry": { "type": "Point", "coordinates": [ 22.2, 13.46667 ] } }
,
{ "type": "Feature", "properties": { "wfpid": 182, "name": "Sinkasse", "status": "Open", "customs": "Yes", "iso3_1": "TGO", "iso3_2": "BFA", "locprecision": "Unknown", "latitude": "11.10389", "longitude": "0.00944", "wfpregion": "OMD", "lastcheckdate": null, "remarks": null, "source": null, "createdate": "2013-01-01T00:00:00", "updatedate": null }, "geometry": { "type": "Point", "coordinates": [ 0.00944, 11.10389 ] } }
,
{ "type": "Feature", "properties": { "wfpid": 183, "name": "Ouesso", "status": "Open", "customs": "Yes", "iso3_1": "COG", "iso3_2": "CMR", "locprecision": "Unknown", "latitude": "1.61361", "longitude": "16.05167", "wfpregion": "OMJ", "lastcheckdate": null, "remarks": null, "source": null, "createdate": "2013-01-01T00:00:00", "updatedate": null }, "geometry": { "type": "Point", "coordinates": [ 16.05167, 1.61361 ] } }
,
{ "type": "Feature", "properties": { "wfpid": 184, "name": "Busia", "status": "Open", "customs": "Yes", "iso3_1": "UGA", "iso3_2": "KEN", "locprecision": "Unknown", "latitude": "0.45444", "longitude": "34.07583", "wfpregion": "OMN", "lastcheckdate": null, "remarks": null, "source": null, "createdate": "2013-01-01T00:00:00", "updatedate": null }, "geometry": { "type": "Point", "coordinates": [ 34.07583, 0.45444 ] } }
,
{ "type": "Feature", "properties": { "wfpid": 185, "name": "Dehiba", "status": "Open", "customs": "Yes", "iso3_1": "TUN", "iso3_2": "LBY", "locprecision": "Unknown", "latitude": "32.00799", "longitude": "10.70135", "wfpregion": "OMC", "lastcheckdate": null, "remarks": null, "source": null, "createdate": "2013-01-01T00:00:00", "updatedate": null }, "geometry": { "type": "Point", "coordinates": [ 10.70135, 32.00799 ] } }
,
{ "type": "Feature", "properties": { "wfpid": 186, "name": "As Sallum", "status": "Open", "customs": "Yes", "iso3_1": "EGY", "iso3_2": "LBY", "locprecision": "Unknown", "latitude": "31.55371", "longitude": "25.15793", "wfpregion": "OMC", "lastcheckdate": null, "remarks": null, "source": null, "createdate": "2013-01-01T00:00:00", "updatedate": null }, "geometry": { "type": "Point", "coordinates": [ 25.15793, 31.55371 ] } }
,
{ "type": "Feature", "properties": { "wfpid": 190, "name": "Laleraba", "status": "Open", "customs": "Yes", "iso3_1": "CIV", "iso3_2": "BFA", "locprecision": "Unknown", "latitude": "10.13389", "longitude": "-5.08278", "wfpregion": "OMD", "lastcheckdate": null, "remarks": null, "source": null, "createdate": "2013-01-01T00:00:00", "updatedate": null }, "geometry": { "type": "Point", "coordinates": [ -5.08278, 10.13389 ] } }
,
{ "type": "Feature", "properties": { "wfpid": 96, "name": "Halaib", "status": "Open", "customs": "Yes", "iso3_1": "SDN", "iso3_2": "EGY", "locprecision": "Unknown", "latitude": "22.22043", "longitude": "36.64124", "wfpregion": "OMC", "lastcheckdate": null, "remarks": null, "source": null, "createdate": "2013-01-01T00:00:00", "updatedate": "2014-01-07T09:36:02.352" }, "geometry": { "type": "Point", "coordinates": [ 36.64124, 22.22043 ] } }
,
{ "type": "Feature", "properties": { "wfpid": 187, "name": "Zamu", "status": "Open", "customs": "Yes", "iso3_1": "LBR", "iso3_2": "CIV", "locprecision": "Unknown", "latitude": "6.46306", "longitude": "-8.52417", "wfpregion": "OMD", "lastcheckdate": null, "remarks": null, "source": null, "createdate": "2013-01-01T00:00:00", "updatedate": null }, "geometry": { "type": "Point", "coordinates": [ -8.52417, 6.46306 ] } }
,
{ "type": "Feature", "properties": { "wfpid": 188, "name": "Ganta", "status": "Open", "customs": "Yes", "iso3_1": "LBR", "iso3_2": "GIN", "locprecision": "Unknown", "latitude": "7.23500", "longitude": "-8.98444", "wfpregion": "OMD", "lastcheckdate": null, "remarks": null, "source": null, "createdate": "2013-01-01T00:00:00", "updatedate": null }, "geometry": { "type": "Point", "coordinates": [ -8.98444, 7.235 ] } }
,
{ "type": "Feature", "properties": { "wfpid": 189, "name": "Ar Ramtha-Dar`a", "status": "Open", "customs": "Yes", "iso3_1": "JOR", "iso3_2": "SYR", "locprecision": "Unknown", "latitude": "32.59020", "longitude": "36.05577", "wfpregion": "OMC", "lastcheckdate": null, "remarks": null, "source": null, "createdate": "2013-01-01T00:00:00", "updatedate": null }, "geometry": { "type": "Point", "coordinates": [ 36.05577, 32.5902 ] } }
,
{ "type": "Feature", "properties": { "wfpid": 106, "name": "Taveta", "status": "Open", "customs": "Yes", "iso3_1": "KEN", "iso3_2": "TZA", "locprecision": "Unknown", "latitude": "-3.40230", "longitude": "37.68009", "wfpregion": "OMN", "lastcheckdate": null, "remarks": null, "source": null, "createdate": "2013-01-01T00:00:00", "updatedate": null }, "geometry": { "type": "Point", "coordinates": [ 37.68009, -3.4023 ] } }
,
{ "type": "Feature", "properties": { "wfpid": 107, "name": "Andkhvoy", "status": "Open", "customs": "Yes", "iso3_1": "AFG", "iso3_2": "TKM", "locprecision": "Unknown", "latitude": "36.92077", "longitude": "65.11944", "wfpregion": "OMB", "lastcheckdate": null, "remarks": null, "source": null, "createdate": "2013-01-01T00:00:00", "updatedate": null }, "geometry": { "type": "Point", "coordinates": [ 65.11944, 36.92077 ] } }
,
{ "type": "Feature", "properties": { "wfpid": 108, "name": "Feerfeer", "status": "Open", "customs": "Yes", "iso3_1": "SOM", "iso3_2": "ETH", "locprecision": "Unknown", "latitude": "5.08630", "longitude": "45.15810", "wfpregion": "OMN", "lastcheckdate": null, "remarks": null, "source": null, "createdate": "2013-01-01T00:00:00", "updatedate": null }, "geometry": { "type": "Point", "coordinates": [ 45.1581, 5.0863 ] } }
,
{ "type": "Feature", "properties": { "wfpid": 109, "name": "Heyratan", "status": "Open", "customs": "Yes", "iso3_1": "AFG", "iso3_2": "UZB", "locprecision": "Unknown", "latitude": "37.22139", "longitude": "67.42056", "wfpregion": "OMB", "lastcheckdate": null, "remarks": null, "source": null, "createdate": "2013-01-01T00:00:00", "updatedate": null }, "geometry": { "type": "Point", "coordinates": [ 67.42056, 37.22139 ] } }
,
{ "type": "Feature", "properties": { "wfpid": 110, "name": "Samti", "status": "Open", "customs": "Yes", "iso3_1": "AFG", "iso3_2": "TJK", "locprecision": "Unknown", "latitude": "37.59472", "longitude": "69.86500", "wfpregion": "OMB", "lastcheckdate": null, "remarks": null, "source": null, "createdate": "2013-01-01T00:00:00", "updatedate": null }, "geometry": { "type": "Point", "coordinates": [ 69.865, 37.59472 ] } }
,
{ "type": "Feature", "properties": { "wfpid": 111, "name": "Torghundi", "status": "Open", "customs": "Yes", "iso3_1": "TKM", "iso3_2": "AFG", "locprecision": "Unknown", "latitude": "35.24306", "longitude": "62.28278", "wfpregion": "OMB", "lastcheckdate": null, "remarks": null, "source": null, "createdate": "2013-01-01T00:00:00", "updatedate": null }, "geometry": { "type": "Point", "coordinates": [ 62.28278, 35.24306 ] } }
,
{ "type": "Feature", "properties": { "wfpid": 112, "name": "Sursurang", "status": "Open", "customs": "Yes", "iso3_1": "PAK", "iso3_2": "AFG", "locprecision": "Unknown", "latitude": "33.95793", "longitude": "69.88548", "wfpregion": "OMB", "lastcheckdate": null, "remarks": null, "source": null, "createdate": "2013-01-01T00:00:00", "updatedate": null }, "geometry": { "type": "Point", "coordinates": [ 69.88548, 33.95793 ] } }
,
{ "type": "Feature", "properties": { "wfpid": 113, "name": "Taftan", "status": "Open", "customs": "Yes", "iso3_1": "PAK", "iso3_2": "IRN", "locprecision": "Unknown", "latitude": "28.95667", "longitude": "61.58917", "wfpregion": "OMB", "lastcheckdate": null, "remarks": null, "source": null, "createdate": "2013-01-01T00:00:00", "updatedate": null }, "geometry": { "type": "Point", "coordinates": [ 61.58917, 28.95667 ] } }
,
{ "type": "Feature", "properties": { "wfpid": 114, "name": "Liboi", "status": "Open", "customs": "Yes", "iso3_1": "KEN", "iso3_2": "SOM", "locprecision": "Unknown", "latitude": "0.40000", "longitude": "40.95000", "wfpregion": "OMN", "lastcheckdate": null, "remarks": null, "source": null, "createdate": "2013-01-01T00:00:00", "updatedate": null }, "geometry": { "type": "Point", "coordinates": [ 40.95, 0.4 ] } }
,
{ "type": "Feature", "properties": { "wfpid": 115, "name": "ElÃ­as PiÃ±a", "status": "Open", "customs": "Yes", "iso3_1": "DOM", "iso3_2": "HTI", "locprecision": "Unknown", "latitude": "18.87627", "longitude": "-71.70655", "wfpregion": "OMP", "lastcheckdate": null, "remarks": null, "source": null, "createdate": "2013-01-01T00:00:00", "updatedate": null }, "geometry": { "type": "Point", "coordinates": [ -71.70655, 18.87627 ] } }
,
{ "type": "Feature", "properties": { "wfpid": 116, "name": "Sesheke", "status": "Open", "customs": "Yes", "iso3_1": "NAM", "iso3_2": "ZMB", "locprecision": "Unknown", "latitude": "-17.48001", "longitude": "24.30632", "wfpregion": "OMJ", "lastcheckdate": null, "remarks": null, "source": null, "createdate": "2013-01-01T00:00:00", "updatedate": null }, "geometry": { "type": "Point", "coordinates": [ 24.30632, -17.48001 ] } }
,
{ "type": "Feature", "properties": { "wfpid": 117, "name": "Metema", "status": "Open", "customs": "Yes", "iso3_1": "ETH", "iso3_2": "SDN", "locprecision": "Unknown", "latitude": "12.94708", "longitude": "36.17332", "wfpregion": "OMN", "lastcheckdate": null, "remarks": null, "source": null, "createdate": "2013-01-01T00:00:00", "updatedate": null }, "geometry": { "type": "Point", "coordinates": [ 36.17332, 12.94708 ] } }
,
{ "type": "Feature", "properties": { "wfpid": 118, "name": "Marsa Oseif", "status": "Open", "customs": "Yes", "iso3_1": "SDN", "iso3_2": "EGY", "locprecision": "Unknown", "latitude": "21.76667", "longitude": "36.86667", "wfpregion": "OMC", "lastcheckdate": null, "remarks": null, "source": null, "createdate": "2013-01-01T00:00:00", "updatedate": null }, "geometry": { "type": "Point", "coordinates": [ 36.86667, 21.76667 ] } }
,
{ "type": "Feature", "properties": { "wfpid": 119, "name": "Attari", "status": "Open", "customs": "Yes", "iso3_1": "IND", "iso3_2": "PAK", "locprecision": "Unknown", "latitude": "31.60069", "longitude": "74.61507", "wfpregion": "OMB", "lastcheckdate": null, "remarks": null, "source": null, "createdate": "2013-01-01T00:00:00", "updatedate": null }, "geometry": { "type": "Point", "coordinates": [ 74.61507, 31.60069 ] } }
,
{ "type": "Feature", "properties": { "wfpid": 145, "name": "Minjaveh", "status": "Open", "customs": "Yes", "iso3_1": "IRN", "iso3_2": "PAK", "locprecision": "Unknown", "latitude": "29.02289", "longitude": "61.46061", "wfpregion": "OMC", "lastcheckdate": null, "remarks": null, "source": null, "createdate": "2013-01-01T00:00:00", "updatedate": null }, "geometry": { "type": "Point", "coordinates": [ 61.46061, 29.02289 ] } }
,
{ "type": "Feature", "properties": { "wfpid": 146, "name": "Kelif", "status": "Open", "customs": "Yes", "iso3_1": "TKM", "iso3_2": "AFG", "locprecision": "Unknown", "latitude": "37.34889", "longitude": "66.25056", "wfpregion": "OMB", "lastcheckdate": null, "remarks": null, "source": null, "createdate": "2013-01-01T00:00:00", "updatedate": null }, "geometry": { "type": "Point", "coordinates": [ 66.25056, 37.34889 ] } }
,
{ "type": "Feature", "properties": { "wfpid": 147, "name": "Khan Kala", "status": "Open", "customs": "Yes", "iso3_1": "AFG", "iso3_2": "PAK", "locprecision": "Unknown", "latitude": "33.45000", "longitude": "70.18333", "wfpregion": "OMB", "lastcheckdate": null, "remarks": null, "source": null, "createdate": "2013-01-01T00:00:00", "updatedate": null }, "geometry": { "type": "Point", "coordinates": [ 70.18333, 33.45 ] } }
,
{ "type": "Feature", "properties": { "wfpid": 148, "name": "Bar Sur Kamar", "status": "Open", "customs": "Yes", "iso3_1": "AFG", "iso3_2": "PAK", "locprecision": "Unknown", "latitude": "35.03333", "longitude": "71.51667", "wfpregion": "OMB", "lastcheckdate": null, "remarks": null, "source": null, "createdate": "2013-01-01T00:00:00", "updatedate": null }, "geometry": { "type": "Point", "coordinates": [ 71.51667, 35.03333 ] } }
,
{ "type": "Feature", "properties": { "wfpid": 149, "name": "Ala Dshirgha", "status": "Open", "customs": "Yes", "iso3_1": "AFG", "iso3_2": "PAK", "locprecision": "Unknown", "latitude": "31.36667", "longitude": "67.76667", "wfpregion": "OMB", "lastcheckdate": null, "remarks": null, "source": null, "createdate": "2013-01-01T00:00:00", "updatedate": null }, "geometry": { "type": "Point", "coordinates": [ 67.76667, 31.36667 ] } }
,
{ "type": "Feature", "properties": { "wfpid": 150, "name": "Bachtschai Kalm", "status": "Open", "customs": "Yes", "iso3_1": "AFG", "iso3_2": "PAK", "locprecision": "Unknown", "latitude": "31.76667", "longitude": "68.38333", "wfpregion": "OMB", "lastcheckdate": null, "remarks": null, "source": null, "createdate": "2013-01-01T00:00:00", "updatedate": null }, "geometry": { "type": "Point", "coordinates": [ 68.38333, 31.76667 ] } }
,
{ "type": "Feature", "properties": { "wfpid": 205, "name": "Ezo", "status": "Open", "customs": "Unknown", "iso3_1": "SSD", "iso3_2": "CAF", "locprecision": "Unknown", "latitude": "5.07061", "longitude": "27.47215", "wfpregion": "OMN", "lastcheckdate": null, "remarks": null, "source": null, "createdate": "2013-01-01T00:00:00", "updatedate": null }, "geometry": { "type": "Point", "coordinates": [ 27.47215, 5.07061 ] } }
,
{ "type": "Feature", "properties": { "wfpid": 206, "name": "Sakure", "status": "Open", "customs": "Unknown", "iso3_1": "SSD", "iso3_2": "COD", "locprecision": "Unknown", "latitude": "4.38702", "longitude": "28.21614", "wfpregion": "OMN", "lastcheckdate": null, "remarks": null, "source": null, "createdate": "2013-01-01T00:00:00", "updatedate": null }, "geometry": { "type": "Point", "coordinates": [ 28.21614, 4.38702 ] } }
,
{ "type": "Feature", "properties": { "wfpid": 207, "name": "Bazi", "status": "Open", "customs": "Unknown", "iso3_1": "SSD", "iso3_2": "COD", "locprecision": "Unknown", "latitude": "3.66720", "longitude": "30.78419", "wfpregion": "OMN", "lastcheckdate": null, "remarks": null, "source": null, "createdate": "2013-01-01T00:00:00", "updatedate": null }, "geometry": { "type": "Point", "coordinates": [ 30.78419, 3.6672 ] } }
,
{ "type": "Feature", "properties": { "wfpid": 208, "name": "Agok", "status": "Open", "customs": "Unknown", "iso3_1": "SSD", "iso3_2": "SDN", "locprecision": "Unknown", "latitude": "9.35051", "longitude": "28.58083", "wfpregion": "OMN", "lastcheckdate": null, "remarks": null, "source": null, "createdate": "2013-01-01T00:00:00", "updatedate": null }, "geometry": { "type": "Point", "coordinates": [ 28.58083, 9.35051 ] } }
,
{ "type": "Feature", "properties": { "wfpid": 210, "name": "Al-Ya'rubiyah-Rabiaa", "status": "Open", "customs": "Unknown", "iso3_1": "IRQ", "iso3_2": "SYR", "locprecision": "Unknown", "latitude": "36.80453", "longitude": "42.08110", "wfpregion": "OMC", "lastcheckdate": null, "remarks": null, "source": null, "createdate": "2013-01-01T00:00:00", "updatedate": null }, "geometry": { "type": "Point", "coordinates": [ 42.0811, 36.80453 ] } }
,
{ "type": "Feature", "properties": { "wfpid": 211, "name": "Al Waleed", "status": "Open", "customs": "Unknown", "iso3_1": "IRQ", "iso3_2": "SYR", "locprecision": "Unknown", "latitude": "33.44098", "longitude": "38.93371", "wfpregion": "OMC", "lastcheckdate": null, "remarks": null, "source": null, "createdate": "2013-01-01T00:00:00", "updatedate": null }, "geometry": { "type": "Point", "coordinates": [ 38.93371, 33.44098 ] } }
,
{ "type": "Feature", "properties": { "wfpid": 212, "name": "Abu Kamal-Khutaylah", "status": "Open", "customs": "Unknown", "iso3_1": "IRQ", "iso3_2": "SYR", "locprecision": "Unknown", "latitude": "34.40443", "longitude": "40.97960", "wfpregion": "OMC", "lastcheckdate": null, "remarks": null, "source": null, "createdate": "2013-01-01T00:00:00", "updatedate": null }, "geometry": { "type": "Point", "coordinates": [ 40.9796, 34.40443 ] } }
,
{ "type": "Feature", "properties": { "wfpid": 151, "name": "Gawhardesh", "status": "Open", "customs": "Yes", "iso3_1": "AFG", "iso3_2": "PAK", "locprecision": "Unknown", "latitude": "35.38333", "longitude": "71.58333", "wfpregion": "OMB", "lastcheckdate": null, "remarks": null, "source": null, "createdate": "2013-01-01T00:00:00", "updatedate": null }, "geometry": { "type": "Point", "coordinates": [ 71.58333, 35.38333 ] } }
,
{ "type": "Feature", "properties": { "wfpid": 152, "name": "Shahsowarkarodirud", "status": "Open", "customs": "Yes", "iso3_1": "PAK", "iso3_2": "IRN", "locprecision": "Unknown", "latitude": "29.00000", "longitude": "61.55000", "wfpregion": "OMB", "lastcheckdate": null, "remarks": null, "source": null, "createdate": "2013-01-01T00:00:00", "updatedate": null }, "geometry": { "type": "Point", "coordinates": [ 61.55, 29.0 ] } }
,
{ "type": "Feature", "properties": { "wfpid": 153, "name": "Anse-Ã -Pitre", "status": "Open", "customs": "Yes", "iso3_1": "DOM", "iso3_2": "HTI", "locprecision": "Unknown", "latitude": "18.04506", "longitude": "-71.76544", "wfpregion": "OMP", "lastcheckdate": null, "remarks": null, "source": null, "createdate": "2013-01-01T00:00:00", "updatedate": null }, "geometry": { "type": "Point", "coordinates": [ -71.76544, 18.04506 ] } }
,
{ "type": "Feature", "properties": { "wfpid": 154, "name": "DajabÃ³n", "status": "Open", "customs": "Yes", "iso3_1": "DOM", "iso3_2": "HTI", "locprecision": "Unknown", "latitude": "19.55275", "longitude": "-71.70411", "wfpregion": "OMP", "lastcheckdate": null, "remarks": null, "source": null, "createdate": "2013-01-01T00:00:00", "updatedate": null }, "geometry": { "type": "Point", "coordinates": [ -71.70411, 19.55275 ] } }
,
{ "type": "Feature", "properties": { "wfpid": 158, "name": "Rafah", "status": "Open", "customs": "Yes", "iso3_1": "PSE", "iso3_2": "ISR", "locprecision": "Unknown", "latitude": "31.24760", "longitude": "34.25734", "wfpregion": "OMC", "lastcheckdate": null, "remarks": null, "source": null, "createdate": "2013-01-01T00:00:00", "updatedate": null }, "geometry": { "type": "Point", "coordinates": [ 34.25734, 31.2476 ] } }
,
{ "type": "Feature", "properties": { "wfpid": 160, "name": "Kidira", "status": "Open", "customs": "Yes", "iso3_1": "MLI", "iso3_2": "SEN", "locprecision": "Unknown", "latitude": "14.45173", "longitude": "-12.20740", "wfpregion": "OMD", "lastcheckdate": null, "remarks": null, "source": null, "createdate": "2013-01-01T00:00:00", "updatedate": null }, "geometry": { "type": "Point", "coordinates": [ -12.2074, 14.45173 ] } }
,
{ "type": "Feature", "properties": { "wfpid": 200, "name": "Nadapal", "status": "Open", "customs": "Yes", "iso3_1": "KEN", "iso3_2": "SSD", "locprecision": "Unknown", "latitude": "4.44670", "longitude": "34.22124", "wfpregion": "OMN", "lastcheckdate": null, "remarks": null, "source": null, "createdate": "2013-01-01T00:00:00", "updatedate": null }, "geometry": { "type": "Point", "coordinates": [ 34.22124, 4.4467 ] } }
,
{ "type": "Feature", "properties": { "wfpid": 201, "name": "Tsertanya", "status": "Open", "customs": "Yes", "iso3_1": "SSD", "iso3_2": "UGA", "locprecision": "Unknown", "latitude": "3.80962", "longitude": "33.22089", "wfpregion": "OMN", "lastcheckdate": null, "remarks": null, "source": null, "createdate": "2013-01-01T00:00:00", "updatedate": null }, "geometry": { "type": "Point", "coordinates": [ 33.22089, 3.80962 ] } }
,
{ "type": "Feature", "properties": { "wfpid": 56, "name": "Oraba", "status": "Open", "customs": "Unknown", "iso3_1": "UGA", "iso3_2": "SSD", "locprecision": "Unknown", "latitude": "3.53747", "longitude": "30.88214", "wfpregion": "OMN", "lastcheckdate": null, "remarks": null, "source": null, "createdate": "2013-01-01T00:00:00", "updatedate": null }, "geometry": { "type": "Point", "coordinates": [ 30.88214, 3.53747 ] } }
,
{ "type": "Feature", "properties": { "wfpid": 130, "name": "Pochalla", "status": "Open", "customs": "Unknown", "iso3_1": "SSD", "iso3_2": "ETH", "locprecision": "Unknown", "latitude": "7.17833", "longitude": "34.09667", "wfpregion": "OMN", "lastcheckdate": null, "remarks": null, "source": null, "createdate": "2013-01-01T00:00:00", "updatedate": null }, "geometry": { "type": "Point", "coordinates": [ 34.09667, 7.17833 ] } }
,
{ "type": "Feature", "properties": { "wfpid": 167, "name": "Gherille", "status": "Open", "customs": "Unknown", "iso3_1": "SOM", "iso3_2": "KEN", "locprecision": "Unknown", "latitude": "1.71138", "longitude": "41.07877", "wfpregion": "OMN", "lastcheckdate": null, "remarks": null, "source": null, "createdate": "2013-01-01T00:00:00", "updatedate": null }, "geometry": { "type": "Point", "coordinates": [ 41.07877, 1.71138 ] } }
,
{ "type": "Feature", "properties": { "wfpid": 169, "name": "Khorof Harar", "status": "Open", "customs": "Unknown", "iso3_1": "KEN", "iso3_2": "SOM", "locprecision": "Unknown", "latitude": "2.23652", "longitude": "40.72863", "wfpregion": "OMN", "lastcheckdate": null, "remarks": null, "source": null, "createdate": "2013-01-01T00:00:00", "updatedate": null }, "geometry": { "type": "Point", "coordinates": [ 40.72863, 2.23652 ] } }
,
{ "type": "Feature", "properties": { "wfpid": 170, "name": "Amuma", "status": "Open", "customs": "Unknown", "iso3_1": "SOM", "iso3_2": "KEN", "locprecision": "Unknown", "latitude": "-0.27669", "longitude": "41.00104", "wfpregion": "OMN", "lastcheckdate": null, "remarks": null, "source": null, "createdate": "2013-01-01T00:00:00", "updatedate": null }, "geometry": { "type": "Point", "coordinates": [ 41.00104, -0.27669 ] } }
,
{ "type": "Feature", "properties": { "wfpid": 171, "name": "Aulugho", "status": "Open", "customs": "Unknown", "iso3_1": "SOM", "iso3_2": "KEN", "locprecision": "Unknown", "latitude": "-0.88944", "longitude": "41.11898", "wfpregion": "OMN", "lastcheckdate": null, "remarks": null, "source": null, "createdate": "2013-01-01T00:00:00", "updatedate": null }, "geometry": { "type": "Point", "coordinates": [ 41.11898, -0.88944 ] } }
,
{ "type": "Feature", "properties": { "wfpid": 193, "name": "Jikou", "status": "Open", "customs": "Unknown", "iso3_1": "SSD", "iso3_2": "ETH", "locprecision": "Unknown", "latitude": "8.38189", "longitude": "33.77517", "wfpregion": "OMN", "lastcheckdate": null, "remarks": null, "source": null, "createdate": "2013-01-01T00:00:00", "updatedate": null }, "geometry": { "type": "Point", "coordinates": [ 33.77517, 8.38189 ] } }
,
{ "type": "Feature", "properties": { "wfpid": 195, "name": "Bukteng", "status": "Open", "customs": "Unknown", "iso3_1": "ETH", "iso3_2": "SSD", "locprecision": "Unknown", "latitude": "8.35700", "longitude": "33.18267", "wfpregion": "OMN", "lastcheckdate": null, "remarks": null, "source": null, "createdate": "2013-01-01T00:00:00", "updatedate": null }, "geometry": { "type": "Point", "coordinates": [ 33.18267, 8.357 ] } }
,
{ "type": "Feature", "properties": { "wfpid": 196, "name": "Wanding", "status": "Open", "customs": "Unknown", "iso3_1": "SSD", "iso3_2": "ETH", "locprecision": "Unknown", "latitude": "8.06389", "longitude": "33.07097", "wfpregion": "OMN", "lastcheckdate": null, "remarks": null, "source": null, "createdate": "2013-01-01T00:00:00", "updatedate": null }, "geometry": { "type": "Point", "coordinates": [ 33.07097, 8.06389 ] } }
,
{ "type": "Feature", "properties": { "wfpid": 197, "name": "Akobo", "status": "Open", "customs": "Unknown", "iso3_1": "SSD", "iso3_2": "ETH", "locprecision": "Unknown", "latitude": "7.78834", "longitude": "33.00276", "wfpregion": "OMN", "lastcheckdate": null, "remarks": null, "source": null, "createdate": "2013-01-01T00:00:00", "updatedate": null }, "geometry": { "type": "Point", "coordinates": [ 33.00276, 7.78834 ] } }
,
{ "type": "Feature", "properties": { "wfpid": 198, "name": "Munini", "status": "Open", "customs": "Unknown", "iso3_1": "ETH", "iso3_2": "SSD", "locprecision": "Unknown", "latitude": "6.08333", "longitude": "34.98333", "wfpregion": "OMN", "lastcheckdate": null, "remarks": null, "source": null, "createdate": "2013-01-01T00:00:00", "updatedate": null }, "geometry": { "type": "Point", "coordinates": [ 34.98333, 6.08333 ] } }
,
{ "type": "Feature", "properties": { "wfpid": 199, "name": "Raad", "status": "Open", "customs": "Unknown", "iso3_1": "ETH", "iso3_2": "SSD", "locprecision": "Unknown", "latitude": "6.54613", "longitude": "34.94034", "wfpregion": "OMN", "lastcheckdate": null, "remarks": null, "source": null, "createdate": "2013-01-01T00:00:00", "updatedate": null }, "geometry": { "type": "Point", "coordinates": [ 34.94034, 6.54613 ] } }
,
{ "type": "Feature", "properties": { "wfpid": 202, "name": "Pomoju", "status": "Open", "customs": "Unknown", "iso3_1": "SSD", "iso3_2": "UGA", "locprecision": "Unknown", "latitude": "3.72065", "longitude": "31.65346", "wfpregion": "OMN", "lastcheckdate": null, "remarks": null, "source": null, "createdate": "2013-01-01T00:00:00", "updatedate": null }, "geometry": { "type": "Point", "coordinates": [ 31.65346, 3.72065 ] } }
,
{ "type": "Feature", "properties": { "wfpid": 203, "name": "Nimule", "status": "Open", "customs": "Yes", "iso3_1": "SSD", "iso3_2": "UGA", "locprecision": "Unknown", "latitude": "3.59641", "longitude": "32.05882", "wfpregion": "OMN", "lastcheckdate": null, "remarks": null, "source": null, "createdate": "2013-01-01T00:00:00", "updatedate": null }, "geometry": { "type": "Point", "coordinates": [ 32.05882, 3.59641 ] } }
,
{ "type": "Feature", "properties": { "wfpid": 224, "name": "Zegoua", "status": "Open", "customs": "Yes", "iso3_1": "MLI", "iso3_2": "CIV", "locprecision": "Unknown", "latitude": "10.46894", "longitude": "-5.64950", "wfpregion": "OMD", "lastcheckdate": null, "remarks": null, "source": null, "createdate": "2013-01-01T00:00:00", "updatedate": "2013-09-08T00:00:00" }, "geometry": { "type": "Point", "coordinates": [ -5.6495, 10.46894 ] } }
,
{ "type": "Feature", "properties": { "wfpid": 233, "name": "Nara", "status": "Open", "customs": "Yes", "iso3_1": "MLI", "iso3_2": "MRT", "locprecision": "Unknown", "latitude": "15.16875", "longitude": "-7.28466", "wfpregion": "OMD", "lastcheckdate": null, "remarks": null, "source": null, "createdate": "2013-01-01T00:00:00", "updatedate": "2013-09-08T00:00:00" }, "geometry": { "type": "Point", "coordinates": [ -7.28466, 15.16875 ] } }
,
{ "type": "Feature", "properties": { "wfpid": 161, "name": "Labbezanga", "status": "Open", "customs": "Yes", "iso3_1": "NER", "iso3_2": "MLI", "locprecision": "Unknown", "latitude": "14.96687", "longitude": "0.78240", "wfpregion": "OMD", "lastcheckdate": null, "remarks": null, "source": null, "createdate": "2013-01-01T00:00:00", "updatedate": null }, "geometry": { "type": "Point", "coordinates": [ 0.7824, 14.96687 ] } }
,
{ "type": "Feature", "properties": { "wfpid": 162, "name": "Doulai Diassa", "status": "Open", "customs": "Yes", "iso3_1": "MLI", "iso3_2": "BFA", "locprecision": "Unknown", "latitude": "11.11997", "longitude": "-5.36089", "wfpregion": "OMD", "lastcheckdate": null, "remarks": null, "source": null, "createdate": "2013-01-01T00:00:00", "updatedate": null }, "geometry": { "type": "Point", "coordinates": [ -5.36089, 11.11997 ] } }
,
{ "type": "Feature", "properties": { "wfpid": 92, "name": "Wagha", "status": "Open", "customs": "Yes", "iso3_1": "PAK", "iso3_2": "IND", "locprecision": "Unknown", "latitude": "31.60000", "longitude": "74.55000", "wfpregion": "OMB", "lastcheckdate": null, "remarks": null, "source": null, "createdate": "2013-01-01T00:00:00", "updatedate": null }, "geometry": { "type": "Point", "coordinates": [ 74.55, 31.6 ] } }
,
{ "type": "Feature", "properties": { "wfpid": 159, "name": "Karni (Al Mintar)", "status": "Open", "customs": "Yes", "iso3_1": "PSE", "iso3_2": "ISR", "locprecision": "Unknown", "latitude": "31.47061", "longitude": "34.47330", "wfpregion": "OMC", "lastcheckdate": null, "remarks": null, "source": null, "createdate": "2013-01-01T00:00:00", "updatedate": "2014-01-07T09:33:26.66" }, "geometry": { "type": "Point", "coordinates": [ 34.4733, 31.47061 ] } }
,
{ "type": "Feature", "properties": { "wfpid": 155, "name": "Sufa (Al Awwda)", "status": "Open", "customs": "Yes", "iso3_1": "EGY", "iso3_2": "ISR", "locprecision": "Unknown", "latitude": "31.25754", "longitude": "34.32594", "wfpregion": "OMC", "lastcheckdate": null, "remarks": null, "source": null, "createdate": "2013-01-01T00:00:00", "updatedate": "2014-01-07T09:33:42.708" }, "geometry": { "type": "Point", "coordinates": [ 34.32594, 31.25754 ] } }
,
{ "type": "Feature", "properties": { "wfpid": 156, "name": "Nahal Oz (Al Shaja'iya)", "status": "Open", "customs": "Yes", "iso3_1": "PSE", "iso3_2": "ISR", "locprecision": "Unknown", "latitude": "31.48254", "longitude": "34.48928", "wfpregion": "OMC", "lastcheckdate": null, "remarks": null, "source": null, "createdate": "2013-01-01T00:00:00", "updatedate": "2014-01-07T09:33:50.145" }, "geometry": { "type": "Point", "coordinates": [ 34.48928, 31.48254 ] } }
,
{ "type": "Feature", "properties": { "wfpid": 163, "name": "Faramana", "status": "Open", "customs": "Yes", "iso3_1": "BFA", "iso3_2": "MLI", "locprecision": "Unknown", "latitude": "12.05372", "longitude": "-4.67048", "wfpregion": "OMD", "lastcheckdate": null, "remarks": null, "source": null, "createdate": "2013-01-01T00:00:00", "updatedate": null }, "geometry": { "type": "Point", "coordinates": [ -4.67048, 12.05372 ] } }
,
{ "type": "Feature", "properties": { "wfpid": 164, "name": "Anderamboukane", "status": "Open", "customs": "Yes", "iso3_1": "NER", "iso3_2": "MLI", "locprecision": "Unknown", "latitude": "15.34135", "longitude": "3.15723", "wfpregion": "OMD", "lastcheckdate": null, "remarks": null, "source": null, "createdate": "2013-01-01T00:00:00", "updatedate": null }, "geometry": { "type": "Point", "coordinates": [ 3.15723, 15.34135 ] } }
,
{ "type": "Feature", "properties": { "wfpid": 228, "name": "Gerger", "status": "Closed", "customs": "Yes", "iso3_1": "SSD", "iso3_2": "SDN", "locprecision": "Unknown", "latitude": "11.98958", "longitude": "32.76058", "wfpregion": "OMN", "lastcheckdate": null, "remarks": null, "source": null, "createdate": "2013-01-01T00:00:00", "updatedate": null }, "geometry": { "type": "Point", "coordinates": [ 32.76058, 11.98958 ] } }
,
{ "type": "Feature", "properties": { "wfpid": 12, "name": "Chicualacuala", "status": "Open", "customs": "Yes", "iso3_1": "MOZ", "iso3_2": "ZWE", "locprecision": "Unknown", "latitude": "-22.08333", "longitude": "31.66667", "wfpregion": "OMJ", "lastcheckdate": null, "remarks": null, "source": null, "createdate": "2013-01-01T00:00:00", "updatedate": null }, "geometry": { "type": "Point", "coordinates": [ 31.66667, -22.08333 ] } }
,
{ "type": "Feature", "properties": { "wfpid": 13, "name": "Galya Batur", "status": "Open", "customs": "Yes", "iso3_1": "TJK", "iso3_2": "UZB", "locprecision": "Unknown", "latitude": "38.46248", "longitude": "68.13110", "wfpregion": "OMC", "lastcheckdate": null, "remarks": null, "source": null, "createdate": "2013-01-01T00:00:00", "updatedate": null }, "geometry": { "type": "Point", "coordinates": [ 68.1311, 38.46248 ] } }
,
{ "type": "Feature", "properties": { "wfpid": 14, "name": "Akzhigit", "status": "Open", "customs": "Yes", "iso3_1": "KAZ", "iso3_2": "UZB", "locprecision": "Unknown", "latitude": "45.08568", "longitude": "55.62295", "wfpregion": "OMC", "lastcheckdate": null, "remarks": null, "source": null, "createdate": "2013-01-01T00:00:00", "updatedate": null }, "geometry": { "type": "Point", "coordinates": [ 55.62295, 45.08568 ] } }
,
{ "type": "Feature", "properties": { "wfpid": 15, "name": "Karakalpakiya", "status": "Open", "customs": "Yes", "iso3_1": "UZB", "iso3_2": "KAZ", "locprecision": "Unknown", "latitude": "44.75000", "longitude": "56.08333", "wfpregion": "OMC", "lastcheckdate": null, "remarks": null, "source": null, "createdate": "2013-01-01T00:00:00", "updatedate": null }, "geometry": { "type": "Point", "coordinates": [ 56.08333, 44.75 ] } }
,
{ "type": "Feature", "properties": { "wfpid": 16, "name": "Victoria Falls", "status": "Open", "customs": "Yes", "iso3_1": "ZWE", "iso3_2": "ZMB", "locprecision": "Unknown", "latitude": "-17.93509", "longitude": "25.83753", "wfpregion": "OMJ", "lastcheckdate": null, "remarks": null, "source": null, "createdate": "2013-01-01T00:00:00", "updatedate": null }, "geometry": { "type": "Point", "coordinates": [ 25.83753, -17.93509 ] } }
,
{ "type": "Feature", "properties": { "wfpid": 17, "name": "Mutare Border", "status": "Open", "customs": "Yes", "iso3_1": "ZWE", "iso3_2": "MOZ", "locprecision": "Unknown", "latitude": "-19.00567", "longitude": "32.70827", "wfpregion": "OMJ", "lastcheckdate": null, "remarks": null, "source": null, "createdate": "2013-01-01T00:00:00", "updatedate": null }, "geometry": { "type": "Point", "coordinates": [ 32.70827, -19.00567 ] } }
,
{ "type": "Feature", "properties": { "wfpid": 18, "name": "Livingstone", "status": "Open", "customs": "Yes", "iso3_1": "ZMB", "iso3_2": "ZWE", "locprecision": "Unknown", "latitude": "-17.85772", "longitude": "25.85845", "wfpregion": "OMJ", "lastcheckdate": null, "remarks": null, "source": null, "createdate": "2013-01-01T00:00:00", "updatedate": null }, "geometry": { "type": "Point", "coordinates": [ 25.85845, -17.85772 ] } }
,
{ "type": "Feature", "properties": { "wfpid": 19, "name": "Fonds Parisien", "status": "Open", "customs": "Yes", "iso3_1": "HTI", "iso3_2": "DOM", "locprecision": "Unknown", "latitude": "18.51670", "longitude": "-71.98330", "wfpregion": "OMP", "lastcheckdate": null, "remarks": null, "source": null, "createdate": "2013-01-01T00:00:00", "updatedate": null }, "geometry": { "type": "Point", "coordinates": [ -71.9833, 18.5167 ] } }
,
{ "type": "Feature", "properties": { "wfpid": 20, "name": "BelladÃ¨re", "status": "Open", "customs": "Yes", "iso3_1": "HTI", "iso3_2": "DOM", "locprecision": "Unknown", "latitude": "18.86860", "longitude": "-71.74734", "wfpregion": "OMP", "lastcheckdate": null, "remarks": null, "source": null, "createdate": "2013-01-01T00:00:00", "updatedate": null }, "geometry": { "type": "Point", "coordinates": [ -71.74734, 18.8686 ] } }
,
{ "type": "Feature", "properties": { "wfpid": 214, "name": "Nazariya", "status": "Open", "customs": "Unknown", "iso3_1": "SYR", "iso3_2": "LBN", "locprecision": "Unknown", "latitude": "34.42483", "longitude": "36.54555", "wfpregion": "OMC", "lastcheckdate": null, "remarks": null, "source": null, "createdate": "2013-01-01T00:00:00", "updatedate": null }, "geometry": { "type": "Point", "coordinates": [ 36.54555, 34.42483 ] } }
,
{ "type": "Feature", "properties": { "wfpid": 216, "name": "El Aabboudiye", "status": "Open", "customs": "Unknown", "iso3_1": "SYR", "iso3_2": "LBN", "locprecision": "Unknown", "latitude": "34.63921", "longitude": "36.11945", "wfpregion": "OMC", "lastcheckdate": null, "remarks": null, "source": null, "createdate": "2013-01-01T00:00:00", "updatedate": null }, "geometry": { "type": "Point", "coordinates": [ 36.11945, 34.63921 ] } }
,
{ "type": "Feature", "properties": { "wfpid": 217, "name": "Talkalakh", "status": "Open", "customs": "Unknown", "iso3_1": "SYR", "iso3_2": "LBN", "locprecision": "Unknown", "latitude": "34.66795", "longitude": "36.30259", "wfpregion": "OMC", "lastcheckdate": null, "remarks": null, "source": null, "createdate": "2013-01-01T00:00:00", "updatedate": null }, "geometry": { "type": "Point", "coordinates": [ 36.30259, 34.66795 ] } }
,
{ "type": "Feature", "properties": { "wfpid": 218, "name": null, "status": "Open", "customs": "Unknown", "iso3_1": "SYR", "iso3_2": "LBN", "locprecision": "Unknown", "latitude": "34.66363", "longitude": "36.34973", "wfpregion": "OMC", "lastcheckdate": null, "remarks": null, "source": null, "createdate": "2013-01-01T00:00:00", "updatedate": null }, "geometry": { "type": "Point", "coordinates": [ 36.34973, 34.66363 ] } }
,
{ "type": "Feature", "properties": { "wfpid": 219, "name": "Reyhanli-Bab-al-Hawa", "status": "Open", "customs": "Unknown", "iso3_1": "TUR", "iso3_2": "SYR", "locprecision": "Unknown", "latitude": "36.23326", "longitude": "36.68176", "wfpregion": "OMC", "lastcheckdate": null, "remarks": null, "source": null, "createdate": "2013-01-01T00:00:00", "updatedate": null }, "geometry": { "type": "Point", "coordinates": [ 36.68176, 36.23326 ] } }
,
{ "type": "Feature", "properties": { "wfpid": 220, "name": "Kilis-A'zaz", "status": "Open", "customs": "Unknown", "iso3_1": "TUR", "iso3_2": "SYR", "locprecision": "Unknown", "latitude": "36.62879", "longitude": "37.08067", "wfpregion": "OMC", "lastcheckdate": null, "remarks": null, "source": null, "createdate": "2013-01-01T00:00:00", "updatedate": null }, "geometry": { "type": "Point", "coordinates": [ 37.08067, 36.62879 ] } }
,
{ "type": "Feature", "properties": { "wfpid": 221, "name": "Karkamis-Jarabulus", "status": "Open", "customs": "Unknown", "iso3_1": "TUR", "iso3_2": "SYR", "locprecision": "Unknown", "latitude": "36.82596", "longitude": "38.01719", "wfpregion": "OMC", "lastcheckdate": null, "remarks": null, "source": null, "createdate": "2013-01-01T00:00:00", "updatedate": null }, "geometry": { "type": "Point", "coordinates": [ 38.01719, 36.82596 ] } }
,
{ "type": "Feature", "properties": { "wfpid": 222, "name": "Ayn al Arab", "status": "Open", "customs": "Unknown", "iso3_1": "TUR", "iso3_2": "SYR", "locprecision": "Unknown", "latitude": "36.89830", "longitude": "38.37013", "wfpregion": "OMC", "lastcheckdate": null, "remarks": null, "source": null, "createdate": "2013-01-01T00:00:00", "updatedate": null }, "geometry": { "type": "Point", "coordinates": [ 38.37013, 36.8983 ] } }
,
{ "type": "Feature", "properties": { "wfpid": 223, "name": "Akcakale-Tall Abiad", "status": "Open", "customs": "Unknown", "iso3_1": "TUR", "iso3_2": "SYR", "locprecision": "Unknown", "latitude": "36.69973", "longitude": "38.96266", "wfpregion": "OMC", "lastcheckdate": null, "remarks": null, "source": null, "createdate": "2013-01-01T00:00:00", "updatedate": null }, "geometry": { "type": "Point", "coordinates": [ 38.96266, 36.69973 ] } }
,
{ "type": "Feature", "properties": { "wfpid": 225, "name": "Ceylanpinar-Ras Al Ayn", "status": "Open", "customs": "Unknown", "iso3_1": "TUR", "iso3_2": "SYR", "locprecision": "Unknown", "latitude": "36.85009", "longitude": "40.07409", "wfpregion": "OMC", "lastcheckdate": null, "remarks": null, "source": null, "createdate": "2013-01-01T00:00:00", "updatedate": null }, "geometry": { "type": "Point", "coordinates": [ 40.07409, 36.85009 ] } }
,
{ "type": "Feature", "properties": { "wfpid": 226, "name": "Nusaybin-Al Qamishli", "status": "Open", "customs": "Unknown", "iso3_1": "TUR", "iso3_2": "SYR", "locprecision": "Unknown", "latitude": "37.05545", "longitude": "41.22945", "wfpregion": "OMC", "lastcheckdate": null, "remarks": null, "source": null, "createdate": "2013-01-01T00:00:00", "updatedate": null }, "geometry": { "type": "Point", "coordinates": [ 41.22945, 37.05545 ] } }
,
{ "type": "Feature", "properties": { "wfpid": 229, "name": "Al-Tawal-Haradh", "status": "Open", "customs": "Unknown", "iso3_1": "SAU", "iso3_2": "YEM", "locprecision": "Unknown", "latitude": "17.55212", "longitude": "43.45759", "wfpregion": "OMC", "lastcheckdate": null, "remarks": null, "source": null, "createdate": "2013-01-01T00:00:00", "updatedate": "2013-08-25T00:00:00" }, "geometry": { "type": "Point", "coordinates": [ 43.45759, 17.55212 ] } }
,
{ "type": "Feature", "properties": { "wfpid": 230, "name": "Al-Ghaidha-Shahan", "status": "Open", "customs": "Unknown", "iso3_1": "OMN", "iso3_2": "YEM", "locprecision": "Unknown", "latitude": "17.81266", "longitude": "52.56494", "wfpregion": "OMC", "lastcheckdate": null, "remarks": null, "source": null, "createdate": "2013-01-01T00:00:00", "updatedate": "2013-08-25T00:00:00" }, "geometry": { "type": "Point", "coordinates": [ 52.56494, 17.81266 ] } }
,
{ "type": "Feature", "properties": { "wfpid": 1, "name": "Kara-Su", "status": "Open", "customs": "Yes", "iso3_1": "UZB", "iso3_2": "KGZ", "locprecision": "Unknown", "latitude": "40.71649", "longitude": "72.88100", "wfpregion": "OMC", "lastcheckdate": null, "remarks": null, "source": null, "createdate": "2013-01-01T00:00:00", "updatedate": null }, "geometry": { "type": "Point", "coordinates": [ 72.881, 40.71649 ] } }
,
{ "type": "Feature", "properties": { "wfpid": 2, "name": "Talimardzhan", "status": "Open", "customs": "Yes", "iso3_1": "TKM", "iso3_2": "UZB", "locprecision": "Unknown", "latitude": "38.16667", "longitude": "65.51667", "wfpregion": "OMC", "lastcheckdate": null, "remarks": null, "source": null, "createdate": "2013-01-01T00:00:00", "updatedate": null }, "geometry": { "type": "Point", "coordinates": [ 65.51667, 38.16667 ] } }
,
{ "type": "Feature", "properties": { "wfpid": 4, "name": "Dyuyeboyun", "status": "Open", "customs": "Yes", "iso3_1": "TKM", "iso3_2": "UZB", "locprecision": "Unknown", "latitude": "41.19779", "longitude": "61.42208", "wfpregion": "OMC", "lastcheckdate": null, "remarks": null, "source": null, "createdate": "2013-01-01T00:00:00", "updatedate": null }, "geometry": { "type": "Point", "coordinates": [ 61.42208, 41.19779 ] } }
,
{ "type": "Feature", "properties": { "wfpid": 5, "name": "Vakaranga", "status": "Open", "customs": "Yes", "iso3_1": "BWA", "iso3_2": "ZWE", "locprecision": "Unknown", "latitude": "-20.57055", "longitude": "27.68176", "wfpregion": "OMJ", "lastcheckdate": null, "remarks": null, "source": null, "createdate": "2013-01-01T00:00:00", "updatedate": null }, "geometry": { "type": "Point", "coordinates": [ 27.68176, -20.57055 ] } }
,
{ "type": "Feature", "properties": { "wfpid": 6, "name": "Chernitsy", "status": "Open", "customs": "Yes", "iso3_1": "BLR", "iso3_2": "RUS", "locprecision": "Unknown", "latitude": "55.00000", "longitude": "30.85000", "wfpregion": "OMC", "lastcheckdate": null, "remarks": null, "source": null, "createdate": "2013-01-01T00:00:00", "updatedate": null }, "geometry": { "type": "Point", "coordinates": [ 30.85, 55.0 ] } }
,
{ "type": "Feature", "properties": { "wfpid": 8, "name": "Uljanovo", "status": "Open", "customs": "Yes", "iso3_1": "UZB", "iso3_2": "TJK", "locprecision": "Unknown", "latitude": "40.12824", "longitude": "68.51068", "wfpregion": "OMC", "lastcheckdate": null, "remarks": null, "source": null, "createdate": "2013-01-01T00:00:00", "updatedate": null }, "geometry": { "type": "Point", "coordinates": [ 68.51068, 40.12824 ] } }
,
{ "type": "Feature", "properties": { "wfpid": 24, "name": "Bekobod", "status": "Open", "customs": "Yes", "iso3_1": "UZB", "iso3_2": "TJK", "locprecision": "Unknown", "latitude": "40.21113", "longitude": "69.18238", "wfpregion": "OMC", "lastcheckdate": null, "remarks": null, "source": null, "createdate": "2013-01-01T00:00:00", "updatedate": null }, "geometry": { "type": "Point", "coordinates": [ 69.18238, 40.21113 ] } }
,
{ "type": "Feature", "properties": { "wfpid": 25, "name": "Karaul Sain", "status": "Open", "customs": "Yes", "iso3_1": "UZB", "iso3_2": "TKM", "locprecision": "Unknown", "latitude": "39.35000", "longitude": "63.76667", "wfpregion": "OMC", "lastcheckdate": null, "remarks": null, "source": null, "createdate": "2013-01-01T00:00:00", "updatedate": null }, "geometry": { "type": "Point", "coordinates": [ 63.76667, 39.35 ] } }
,
{ "type": "Feature", "properties": { "wfpid": 26, "name": "Indra", "status": "Open", "customs": "Yes", "iso3_1": "LVA", "iso3_2": "BLR", "locprecision": "Unknown", "latitude": "55.88110", "longitude": "27.54032", "wfpregion": "OMC", "lastcheckdate": null, "remarks": null, "source": null, "createdate": "2013-01-01T00:00:00", "updatedate": null }, "geometry": { "type": "Point", "coordinates": [ 27.54032, 55.8811 ] } }
,
{ "type": "Feature", "properties": { "wfpid": 27, "name": "Imeni Mikoyana", "status": "Open", "customs": "Yes", "iso3_1": "TKM", "iso3_2": "UZB", "locprecision": "Unknown", "latitude": "42.28142", "longitude": "59.57304", "wfpregion": "OMC", "lastcheckdate": null, "remarks": null, "source": null, "createdate": "2013-01-01T00:00:00", "updatedate": null }, "geometry": { "type": "Point", "coordinates": [ 59.57304, 42.28142 ] } }
,
{ "type": "Feature", "properties": { "wfpid": 31, "name": "Termez", "status": "Open", "customs": "Yes", "iso3_1": "UZB", "iso3_2": "AFG", "locprecision": "Unknown", "latitude": "37.22020", "longitude": "67.26589", "wfpregion": "OMC", "lastcheckdate": null, "remarks": null, "source": null, "createdate": "2013-01-01T00:00:00", "updatedate": null }, "geometry": { "type": "Point", "coordinates": [ 67.26589, 37.2202 ] } }
,
{ "type": "Feature", "properties": { "wfpid": 32, "name": "Banki", "status": "Open", "customs": "Yes", "iso3_1": "NGA", "iso3_2": "CMR", "locprecision": "Unknown", "latitude": "11.24906", "longitude": "14.15144", "wfpregion": "OMD", "lastcheckdate": null, "remarks": null, "source": null, "createdate": "2013-01-01T00:00:00", "updatedate": null }, "geometry": { "type": "Point", "coordinates": [ 14.15144, 11.24906 ] } }
,
{ "type": "Feature", "properties": { "wfpid": 33, "name": "Cameroon\/Chad Border", "status": "Open", "customs": "Yes", "iso3_1": "TCD", "iso3_2": "CMR", "locprecision": "Unknown", "latitude": "7.77228", "longitude": "15.58747", "wfpregion": "OMD", "lastcheckdate": null, "remarks": null, "source": null, "createdate": "2013-01-01T00:00:00", "updatedate": null }, "geometry": { "type": "Point", "coordinates": [ 15.58747, 7.77228 ] } }
,
{ "type": "Feature", "properties": { "wfpid": 34, "name": "Kye-ossi", "status": "Open", "customs": "Yes", "iso3_1": "CMR", "iso3_2": "GNQ", "locprecision": "Unknown", "latitude": "2.17307", "longitude": "11.33698", "wfpregion": "OMD", "lastcheckdate": null, "remarks": null, "source": null, "createdate": "2013-01-01T00:00:00", "updatedate": null }, "geometry": { "type": "Point", "coordinates": [ 11.33698, 2.17307 ] } }
,
{ "type": "Feature", "properties": { "wfpid": 35, "name": "Amchide", "status": "Open", "customs": "Yes", "iso3_1": "CMR", "iso3_2": "NGA", "locprecision": "Unknown", "latitude": "11.23333", "longitude": "14.13333", "wfpregion": "OMD", "lastcheckdate": null, "remarks": null, "source": null, "createdate": "2013-01-01T00:00:00", "updatedate": null }, "geometry": { "type": "Point", "coordinates": [ 14.13333, 11.23333 ] } }
,
{ "type": "Feature", "properties": { "wfpid": 36, "name": "Daba Gorayale", "status": "Open", "customs": "Yes", "iso3_1": "ETH", "iso3_2": "SOM", "locprecision": "Unknown", "latitude": "8.72472", "longitude": "44.82000", "wfpregion": "OMN", "lastcheckdate": null, "remarks": null, "source": null, "createdate": "2013-01-01T00:00:00", "updatedate": null }, "geometry": { "type": "Point", "coordinates": [ 44.82, 8.72472 ] } }
,
{ "type": "Feature", "properties": { "wfpid": 37, "name": "Dudub", "status": "Open", "customs": "Yes", "iso3_1": "ETH", "iso3_2": "SOM", "locprecision": "Unknown", "latitude": "6.91667", "longitude": "46.70000", "wfpregion": "OMN", "lastcheckdate": null, "remarks": null, "source": null, "createdate": "2013-01-01T00:00:00", "updatedate": null }, "geometry": { "type": "Point", "coordinates": [ 46.7, 6.91667 ] } }
,
{ "type": "Feature", "properties": { "wfpid": 38, "name": "Moloundou", "status": "Open", "customs": "Yes", "iso3_1": "CMR", "iso3_2": "COG", "locprecision": "Unknown", "latitude": "2.04189", "longitude": "15.20877", "wfpregion": "OMD", "lastcheckdate": null, "remarks": null, "source": null, "createdate": "2013-01-01T00:00:00", "updatedate": null }, "geometry": { "type": "Point", "coordinates": [ 15.20877, 2.04189 ] } }
,
{ "type": "Feature", "properties": { "wfpid": 39, "name": "Garoua-Boulai", "status": "Open", "customs": "Yes", "iso3_1": "CMR", "iso3_2": "CAF", "locprecision": "Unknown", "latitude": "5.88741", "longitude": "14.55086", "wfpregion": "OMD", "lastcheckdate": null, "remarks": null, "source": null, "createdate": "2013-01-01T00:00:00", "updatedate": null }, "geometry": { "type": "Point", "coordinates": [ 14.55086, 5.88741 ] } }
,
{ "type": "Feature", "properties": { "wfpid": 40, "name": "Zouar", "status": "Open", "customs": "Yes", "iso3_1": "TCD", "iso3_2": "NER", "locprecision": "Unknown", "latitude": "20.44999", "longitude": "16.53334", "wfpregion": "OMD", "lastcheckdate": null, "remarks": null, "source": null, "createdate": "2013-01-01T00:00:00", "updatedate": null }, "geometry": { "type": "Point", "coordinates": [ 16.53334, 20.44999 ] } }
,
{ "type": "Feature", "properties": { "wfpid": 21, "name": "Ressano Garcia", "status": "Open", "customs": "Yes", "iso3_1": "MOZ", "iso3_2": "ZAF", "locprecision": "Unknown", "latitude": "-25.45006", "longitude": "31.99999", "wfpregion": "OMJ", "lastcheckdate": null, "remarks": null, "source": null, "createdate": "2013-01-01T00:00:00", "updatedate": null }, "geometry": { "type": "Point", "coordinates": [ 31.99999, -25.45006 ] } }
,
{ "type": "Feature", "properties": { "wfpid": 22, "name": "Melnikovo", "status": "Open", "customs": "Yes", "iso3_1": "TJK", "iso3_2": "UZB", "locprecision": "Unknown", "latitude": "40.33414", "longitude": "70.44055", "wfpregion": "OMC", "lastcheckdate": null, "remarks": null, "source": null, "createdate": "2013-01-01T00:00:00", "updatedate": null }, "geometry": { "type": "Point", "coordinates": [ 70.44055, 40.33414 ] } }
,
{ "type": "Feature", "properties": { "wfpid": 213, "name": "Naseeb", "status": "Open", "customs": "Unknown", "iso3_1": "JOR", "iso3_2": "SYR", "locprecision": "Unknown", "latitude": "32.52846", "longitude": "36.20096", "wfpregion": "OMC", "lastcheckdate": null, "remarks": null, "source": null, "createdate": "2013-01-01T00:00:00", "updatedate": "2014-01-07T09:33:04.251" }, "geometry": { "type": "Point", "coordinates": [ 36.20096, 32.52846 ] } }
,
{ "type": "Feature", "properties": { "wfpid": 30, "name": "Golela", "status": "Open", "customs": "Yes", "iso3_1": "ZAF", "iso3_2": "SWZ", "locprecision": "Unknown", "latitude": "-27.33392", "longitude": "31.87404", "wfpregion": "OMJ", "lastcheckdate": null, "remarks": null, "source": null, "createdate": "2013-01-01T00:00:00", "updatedate": "2014-01-07T09:34:29.043" }, "geometry": { "type": "Point", "coordinates": [ 31.87404, -27.33392 ] } }
,
{ "type": "Feature", "properties": { "wfpid": 67, "name": "Libya\/Chad Border1", "status": "Open", "customs": "Yes", "iso3_1": "TCD", "iso3_2": "DZA", "locprecision": "Unknown", "latitude": "20.83710", "longitude": "21.40033", "wfpregion": "OMD", "lastcheckdate": null, "remarks": null, "source": null, "createdate": "2013-01-01T00:00:00", "updatedate": null }, "geometry": { "type": "Point", "coordinates": [ 21.40033, 20.8371 ] } }
,
{ "type": "Feature", "properties": { "wfpid": 41, "name": "Mutare", "status": "Open", "customs": "Yes", "iso3_1": "ZWE", "iso3_2": "MOZ", "locprecision": "Unknown", "latitude": "-18.97476", "longitude": "32.65556", "wfpregion": "OMJ", "lastcheckdate": null, "remarks": null, "source": null, "createdate": "2013-01-01T00:00:00", "updatedate": null }, "geometry": { "type": "Point", "coordinates": [ 32.65556, -18.97476 ] } }
,
{ "type": "Feature", "properties": { "wfpid": 42, "name": "Solonets Butsevich", "status": "Open", "customs": "Yes", "iso3_1": "RUS", "iso3_2": "BLR", "locprecision": "Unknown", "latitude": "54.96667", "longitude": "30.96667", "wfpregion": null, "lastcheckdate": null, "remarks": null, "source": null, "createdate": "2013-01-01T00:00:00", "updatedate": null }, "geometry": { "type": "Point", "coordinates": [ 30.96667, 54.96667 ] } }
,
{ "type": "Feature", "properties": { "wfpid": 43, "name": "Sango", "status": "Open", "customs": "Yes", "iso3_1": "ZWE", "iso3_2": "MOZ", "locprecision": "Unknown", "latitude": "-22.05000", "longitude": "31.68333", "wfpregion": "OMJ", "lastcheckdate": null, "remarks": null, "source": null, "createdate": "2013-01-01T00:00:00", "updatedate": null }, "geometry": { "type": "Point", "coordinates": [ 31.68333, -22.05 ] } }
,
{ "type": "Feature", "properties": { "wfpid": 44, "name": "Beitbridge", "status": "Open", "customs": "Yes", "iso3_1": "ZWE", "iso3_2": "ZAF", "locprecision": "Unknown", "latitude": "-22.21399", "longitude": "29.99145", "wfpregion": "OMJ", "lastcheckdate": null, "remarks": null, "source": null, "createdate": "2013-01-01T00:00:00", "updatedate": null }, "geometry": { "type": "Point", "coordinates": [ 29.99145, -22.21399 ] } }
,
{ "type": "Feature", "properties": { "wfpid": 47, "name": "Regar", "status": "Open", "customs": "Yes", "iso3_1": "TJK", "iso3_2": "UZB", "locprecision": "Unknown", "latitude": "38.50845", "longitude": "68.22510", "wfpregion": "OMC", "lastcheckdate": null, "remarks": null, "source": null, "createdate": "2013-01-01T00:00:00", "updatedate": null }, "geometry": { "type": "Point", "coordinates": [ 68.2251, 38.50845 ] } }
,
{ "type": "Feature", "properties": { "wfpid": 48, "name": "Talimarzhan", "status": "Open", "customs": "Yes", "iso3_1": "UZB", "iso3_2": "TKM", "locprecision": "Unknown", "latitude": "38.38313", "longitude": "65.61866", "wfpregion": "OMC", "lastcheckdate": null, "remarks": null, "source": null, "createdate": "2013-01-01T00:00:00", "updatedate": null }, "geometry": { "type": "Point", "coordinates": [ 65.61866, 38.38313 ] } }
,
{ "type": "Feature", "properties": { "wfpid": 49, "name": "JimanÃ­", "status": "Open", "customs": "Yes", "iso3_1": "DOM", "iso3_2": "HTI", "locprecision": "Unknown", "latitude": "18.49251", "longitude": "-71.85077", "wfpregion": "OMP", "lastcheckdate": null, "remarks": null, "source": null, "createdate": "2013-01-01T00:00:00", "updatedate": null }, "geometry": { "type": "Point", "coordinates": [ -71.85077, 18.49251 ] } }
,
{ "type": "Feature", "properties": { "wfpid": 50, "name": "Daboua", "status": "Open", "customs": "Yes", "iso3_1": "TCD", "iso3_2": "NER", "locprecision": "Unknown", "latitude": "14.41104", "longitude": "13.61280", "wfpregion": "OMD", "lastcheckdate": null, "remarks": null, "source": null, "createdate": "2013-01-01T00:00:00", "updatedate": null }, "geometry": { "type": "Point", "coordinates": [ 13.6128, 14.41104 ] } }
,
{ "type": "Feature", "properties": { "wfpid": 51, "name": "Libya\/Chad Border3", "status": "Open", "customs": "Yes", "iso3_1": "TCD", "iso3_2": "DZA", "locprecision": "Unknown", "latitude": "19.85874", "longitude": "23.32086", "wfpregion": "OMD", "lastcheckdate": null, "remarks": null, "source": null, "createdate": "2013-01-01T00:00:00", "updatedate": null }, "geometry": { "type": "Point", "coordinates": [ 23.32086, 19.85874 ] } }
,
{ "type": "Feature", "properties": { "wfpid": 52, "name": "Chad\/Niger Border", "status": "Open", "customs": "Yes", "iso3_1": "TCD", "iso3_2": "NER", "locprecision": "Unknown", "latitude": "14.73000", "longitude": "13.81135", "wfpregion": "OMD", "lastcheckdate": null, "remarks": null, "source": null, "createdate": "2013-01-01T00:00:00", "updatedate": null }, "geometry": { "type": "Point", "coordinates": [ 13.81135, 14.73 ] } }
,
{ "type": "Feature", "properties": { "wfpid": 53, "name": "Djalingo", "status": "Open", "customs": "Yes", "iso3_1": "TCD", "iso3_2": "CMR", "locprecision": "Unknown", "latitude": "9.69841", "longitude": "14.02519", "wfpregion": "OMD", "lastcheckdate": null, "remarks": null, "source": null, "createdate": "2013-01-01T00:00:00", "updatedate": null }, "geometry": { "type": "Point", "coordinates": [ 14.02519, 9.69841 ] } }
,
{ "type": "Feature", "properties": { "wfpid": 54, "name": "Feke", "status": "Open", "customs": "Yes", "iso3_1": "CAF", "iso3_2": "CMR", "locprecision": "Unknown", "latitude": "7.10000", "longitude": "15.18333", "wfpregion": "OMD", "lastcheckdate": null, "remarks": null, "source": null, "createdate": "2013-01-01T00:00:00", "updatedate": null }, "geometry": { "type": "Point", "coordinates": [ 15.18333, 7.1 ] } }
,
{ "type": "Feature", "properties": { "wfpid": 55, "name": "Bang", "status": "Open", "customs": "Yes", "iso3_1": "CAF", "iso3_2": "CMR", "locprecision": "Unknown", "latitude": "7.46667", "longitude": "15.55000", "wfpregion": "OMD", "lastcheckdate": null, "remarks": null, "source": null, "createdate": "2013-01-01T00:00:00", "updatedate": null }, "geometry": { "type": "Point", "coordinates": [ 15.55, 7.46667 ] } }
,
{ "type": "Feature", "properties": { "wfpid": 57, "name": "Al Awaynat", "status": "Open", "customs": "Yes", "iso3_1": "LBY", "iso3_2": "SDN", "locprecision": "Unknown", "latitude": "21.56667", "longitude": "24.83333", "wfpregion": "OMC", "lastcheckdate": null, "remarks": null, "source": null, "createdate": "2013-01-01T00:00:00", "updatedate": null }, "geometry": { "type": "Point", "coordinates": [ 24.83333, 21.56667 ] } }
,
{ "type": "Feature", "properties": { "wfpid": 58, "name": "Halfa", "status": "Open", "customs": "Yes", "iso3_1": "SDN", "iso3_2": "EGY", "locprecision": "Unknown", "latitude": "21.86667", "longitude": "31.28333", "wfpregion": "OMC", "lastcheckdate": null, "remarks": null, "source": null, "createdate": "2013-01-01T00:00:00", "updatedate": null }, "geometry": { "type": "Point", "coordinates": [ 31.28333, 21.86667 ] } }
,
{ "type": "Feature", "properties": { "wfpid": 59, "name": "Taybad", "status": "Open", "customs": "Yes", "iso3_1": "IRN", "iso3_2": "AFG", "locprecision": "Unknown", "latitude": "34.73863", "longitude": "60.77539", "wfpregion": "OMC", "lastcheckdate": null, "remarks": null, "source": null, "createdate": "2013-01-01T00:00:00", "updatedate": null }, "geometry": { "type": "Point", "coordinates": [ 60.77539, 34.73863 ] } }
,
{ "type": "Feature", "properties": { "wfpid": 60, "name": "El Barde", "status": "Open", "customs": "Yes", "iso3_1": "SOM", "iso3_2": "ETH", "locprecision": "Unknown", "latitude": "4.82821", "longitude": "43.65993", "wfpregion": "OMN", "lastcheckdate": null, "remarks": null, "source": null, "createdate": "2013-01-01T00:00:00", "updatedate": null }, "geometry": { "type": "Point", "coordinates": [ 43.65993, 4.82821 ] } }
,
{ "type": "Feature", "properties": { "wfpid": 61, "name": "Namanga", "status": "Open", "customs": "Yes", "iso3_1": "KEN", "iso3_2": "TZA", "locprecision": "Unknown", "latitude": "-2.54726", "longitude": "36.80417", "wfpregion": "OMN", "lastcheckdate": null, "remarks": null, "source": null, "createdate": "2013-01-01T00:00:00", "updatedate": null }, "geometry": { "type": "Point", "coordinates": [ 36.80417, -2.54726 ] } }
,
{ "type": "Feature", "properties": { "wfpid": 77, "name": "Yeed", "status": "Open", "customs": "Yes", "iso3_1": "SOM", "iso3_2": "ETH", "locprecision": "Unknown", "latitude": "4.54198", "longitude": "43.02254", "wfpregion": "OMN", "lastcheckdate": null, "remarks": null, "source": null, "createdate": "2013-01-01T00:00:00", "updatedate": null }, "geometry": { "type": "Point", "coordinates": [ 43.02254, 4.54198 ] } }
,
{ "type": "Feature", "properties": { "wfpid": 79, "name": "Manica", "status": "Open", "customs": "Yes", "iso3_1": "MOZ", "iso3_2": "ZWE", "locprecision": "Unknown", "latitude": "-18.91783", "longitude": "32.87480", "wfpregion": "OMJ", "lastcheckdate": null, "remarks": null, "source": null, "createdate": "2013-01-01T00:00:00", "updatedate": null }, "geometry": { "type": "Point", "coordinates": [ 32.8748, -18.91783 ] } }
,
{ "type": "Feature", "properties": { "wfpid": 80, "name": "Khunjerab Pass", "status": "Open", "customs": "Yes", "iso3_1": "CHN", "iso3_2": "PAK", "locprecision": "Unknown", "latitude": "36.86667", "longitude": "75.45000", "wfpregion": "OMB", "lastcheckdate": null, "remarks": null, "source": null, "createdate": "2013-01-01T00:00:00", "updatedate": null }, "geometry": { "type": "Point", "coordinates": [ 75.45, 36.86667 ] } }
,
{ "type": "Feature", "properties": { "wfpid": 81, "name": "Bukuria", "status": "Open", "customs": "Yes", "iso3_1": "KEN", "iso3_2": "TZA", "locprecision": "Unknown", "latitude": "-1.23333", "longitude": "34.48333", "wfpregion": "OMN", "lastcheckdate": null, "remarks": null, "source": null, "createdate": "2013-01-01T00:00:00", "updatedate": null }, "geometry": { "type": "Point", "coordinates": [ 34.48333, -1.23333 ] } }
,
{ "type": "Feature", "properties": { "wfpid": 82, "name": "Moyale", "status": "Open", "customs": "Yes", "iso3_1": "KEN", "iso3_2": "ETH", "locprecision": "Unknown", "latitude": "3.46100", "longitude": "39.09500", "wfpregion": "OMN", "lastcheckdate": null, "remarks": null, "source": null, "createdate": "2013-01-01T00:00:00", "updatedate": null }, "geometry": { "type": "Point", "coordinates": [ 39.095, 3.461 ] } }
,
{ "type": "Feature", "properties": { "wfpid": 83, "name": "El Wak", "status": "Open", "customs": "Yes", "iso3_1": "KEN", "iso3_2": "SOM", "locprecision": "Unknown", "latitude": "2.79829", "longitude": "40.98799", "wfpregion": "OMN", "lastcheckdate": null, "remarks": null, "source": null, "createdate": "2013-01-01T00:00:00", "updatedate": null }, "geometry": { "type": "Point", "coordinates": [ 40.98799, 2.79829 ] } }
,
{ "type": "Feature", "properties": { "wfpid": 84, "name": "Duruma", "status": "Open", "customs": "Yes", "iso3_1": "KEN", "iso3_2": "TZA", "locprecision": "Unknown", "latitude": "-4.55000", "longitude": "39.08333", "wfpregion": "OMN", "lastcheckdate": null, "remarks": null, "source": null, "createdate": "2013-01-01T00:00:00", "updatedate": null }, "geometry": { "type": "Point", "coordinates": [ 39.08333, -4.55 ] } }
,
{ "type": "Feature", "properties": { "wfpid": 85, "name": "Sah Kalay", "status": "Open", "customs": "Yes", "iso3_1": "AFG", "iso3_2": "PAK", "locprecision": "Unknown", "latitude": "29.84833", "longitude": "65.84611", "wfpregion": "OMB", "lastcheckdate": null, "remarks": null, "source": null, "createdate": "2013-01-01T00:00:00", "updatedate": null }, "geometry": { "type": "Point", "coordinates": [ 65.84611, 29.84833 ] } }
,
{ "type": "Feature", "properties": { "wfpid": 86, "name": "Seghnan", "status": "Open", "customs": "Yes", "iso3_1": "AFG", "iso3_2": "TJK", "locprecision": "Unknown", "latitude": "37.51667", "longitude": "71.48333", "wfpregion": "OMB", "lastcheckdate": null, "remarks": null, "source": null, "createdate": "2013-01-01T00:00:00", "updatedate": null }, "geometry": { "type": "Point", "coordinates": [ 71.48333, 37.51667 ] } }
,
{ "type": "Feature", "properties": { "wfpid": 64, "name": "Demsa", "status": "Open", "customs": "Yes", "iso3_1": "CMR", "iso3_2": "NGA", "locprecision": "Unknown", "latitude": "9.53333", "longitude": "13.23333", "wfpregion": "OMD", "lastcheckdate": null, "remarks": null, "source": null, "createdate": "2013-01-01T00:00:00", "updatedate": null }, "geometry": { "type": "Point", "coordinates": [ 13.23333, 9.53333 ] } }
,
{ "type": "Feature", "properties": { "wfpid": 65, "name": "Ghat", "status": "Open", "customs": "Yes", "iso3_1": "LBY", "iso3_2": "DZA", "locprecision": "Unknown", "latitude": "24.96436", "longitude": "10.16754", "wfpregion": "OMC", "lastcheckdate": null, "remarks": null, "source": null, "createdate": "2013-01-01T00:00:00", "updatedate": null }, "geometry": { "type": "Point", "coordinates": [ 10.16754, 24.96436 ] } }
,
{ "type": "Feature", "properties": { "wfpid": 66, "name": "Kousseri", "status": "Open", "customs": "Yes", "iso3_1": "CMR", "iso3_2": "TCD", "locprecision": "Unknown", "latitude": "12.07584", "longitude": "15.03199", "wfpregion": "OMD", "lastcheckdate": null, "remarks": null, "source": null, "createdate": "2013-01-01T00:00:00", "updatedate": null }, "geometry": { "type": "Point", "coordinates": [ 15.03199, 12.07584 ] } }
,
{ "type": "Feature", "properties": { "wfpid": 68, "name": "Libya\/Chad Border2", "status": "Open", "customs": "Yes", "iso3_1": "TCD", "iso3_2": "DZA", "locprecision": "Unknown", "latitude": "23.19031", "longitude": "15.44708", "wfpregion": "OMD", "lastcheckdate": null, "remarks": null, "source": null, "createdate": "2013-01-01T00:00:00", "updatedate": null }, "geometry": { "type": "Point", "coordinates": [ 15.44708, 23.19031 ] } }
,
{ "type": "Feature", "properties": { "wfpid": 69, "name": "Domo", "status": "Open", "customs": "Yes", "iso3_1": "ETH", "iso3_2": "SOM", "locprecision": "Unknown", "latitude": "7.86667", "longitude": "46.85000", "wfpregion": "OMN", "lastcheckdate": null, "remarks": null, "source": null, "createdate": "2013-01-01T00:00:00", "updatedate": null }, "geometry": { "type": "Point", "coordinates": [ 46.85, 7.86667 ] } }
,
{ "type": "Feature", "properties": { "wfpid": 70, "name": "Meyo-Kye", "status": "Open", "customs": "Yes", "iso3_1": "GAB", "iso3_2": "CMR", "locprecision": "Unknown", "latitude": "2.17511", "longitude": "11.35925", "wfpregion": "OMD", "lastcheckdate": null, "remarks": null, "source": null, "createdate": "2013-01-01T00:00:00", "updatedate": null }, "geometry": { "type": "Point", "coordinates": [ 11.35925, 2.17511 ] } }
,
{ "type": "Feature", "properties": { "wfpid": 71, "name": "Bemal", "status": "Open", "customs": "Yes", "iso3_1": "CAF", "iso3_2": "TCD", "locprecision": "Unknown", "latitude": "7.58333", "longitude": "16.63333", "wfpregion": "OMD", "lastcheckdate": null, "remarks": null, "source": null, "createdate": "2013-01-01T00:00:00", "updatedate": null }, "geometry": { "type": "Point", "coordinates": [ 16.63333, 7.58333 ] } }
,
{ "type": "Feature", "properties": { "wfpid": 73, "name": "Ishkoshim", "status": "Open", "customs": "Yes", "iso3_1": "TJK", "iso3_2": "AFG", "locprecision": "Unknown", "latitude": "36.75326", "longitude": "71.81480", "wfpregion": "OMC", "lastcheckdate": null, "remarks": null, "source": null, "createdate": "2013-01-01T00:00:00", "updatedate": null }, "geometry": { "type": "Point", "coordinates": [ 71.8148, 36.75326 ] } }
,
{ "type": "Feature", "properties": { "wfpid": 74, "name": "Farkhor", "status": "Open", "customs": "Yes", "iso3_1": "TJK", "iso3_2": "AFG", "locprecision": "Unknown", "latitude": "37.75471", "longitude": "70.19132", "wfpregion": "OMC", "lastcheckdate": null, "remarks": null, "source": null, "createdate": "2013-01-01T00:00:00", "updatedate": null }, "geometry": { "type": "Point", "coordinates": [ 70.19132, 37.75471 ] } }
,
{ "type": "Feature", "properties": { "wfpid": 168, "name": "Dif", "status": "Open", "customs": "Unknown", "iso3_1": "KEN", "iso3_2": "SOM", "locprecision": "Unknown", "latitude": "0.99131", "longitude": "40.96585", "wfpregion": "OMN", "lastcheckdate": null, "remarks": null, "source": null, "createdate": "2013-01-01T00:00:00", "updatedate": null }, "geometry": { "type": "Point", "coordinates": [ 40.96585, 0.99131 ] } }
,
{ "type": "Feature", "properties": { "wfpid": 192, "name": "Yayladagi", "status": "Open", "customs": "Yes", "iso3_1": "TUR", "iso3_2": "SYR", "locprecision": "Unknown", "latitude": "35.90816", "longitude": "36.02157", "wfpregion": "OMC", "lastcheckdate": null, "remarks": null, "source": null, "createdate": "2013-01-01T00:00:00", "updatedate": null }, "geometry": { "type": "Point", "coordinates": [ 36.02157, 35.90816 ] } }
,
{ "type": "Feature", "properties": { "wfpid": 194, "name": "Pagak", "status": "Open", "customs": "Yes", "iso3_1": "ETH", "iso3_2": "SSD", "locprecision": "Unknown", "latitude": "8.47456", "longitude": "34.03529", "wfpregion": "OMN", "lastcheckdate": null, "remarks": null, "source": null, "createdate": "2013-01-01T00:00:00", "updatedate": null }, "geometry": { "type": "Point", "coordinates": [ 34.03529, 8.47456 ] } }
,
{ "type": "Feature", "properties": { "wfpid": 11, "name": "Sairak", "status": "Open", "customs": "Yes", "iso3_1": "UZB", "iso3_2": "AFG", "locprecision": "Unknown", "latitude": "37.25000", "longitude": "67.75000", "wfpregion": "OMC", "lastcheckdate": null, "remarks": null, "source": null, "createdate": "2013-01-01T00:00:00", "updatedate": null }, "geometry": { "type": "Point", "coordinates": [ 67.75, 37.25 ] } }
,
{ "type": "Feature", "properties": { "wfpid": 23, "name": "Komatipoort", "status": "Open", "customs": "Yes", "iso3_1": "ZAF", "iso3_2": "MOZ", "locprecision": "Unknown", "latitude": "-25.42859", "longitude": "31.95238", "wfpregion": "OMJ", "lastcheckdate": null, "remarks": null, "source": null, "createdate": "2013-01-01T00:00:00", "updatedate": "2014-01-07T09:34:09.732" }, "geometry": { "type": "Point", "coordinates": [ 31.95238, -25.42859 ] } }
,
{ "type": "Feature", "properties": { "wfpid": 45, "name": "Ramathlabama", "status": "Open", "customs": "Yes", "iso3_1": "ZAF", "iso3_2": "BWA", "locprecision": "Unknown", "latitude": "-25.65000", "longitude": "25.56667", "wfpregion": "OMJ", "lastcheckdate": null, "remarks": null, "source": null, "createdate": "2013-01-01T00:00:00", "updatedate": "2014-01-07T09:35:04.406" }, "geometry": { "type": "Point", "coordinates": [ 25.56667, -25.65 ] } }
,
{ "type": "Feature", "properties": { "wfpid": 227, "name": "Peshkabour", "status": "Closed", "customs": "Unknown", "iso3_1": "SYR", "iso3_2": "IRQ", "locprecision": "Accurate", "latitude": "37.08907", "longitude": "42.35032", "wfpregion": "OMC", "lastcheckdate": null, "remarks": null, "source": null, "createdate": "2013-01-01T00:00:00", "updatedate": "2014-01-07T09:27:49.145" }, "geometry": { "type": "Point", "coordinates": [ 42.35032308, 37.08907042 ] } }
,
{ "type": "Feature", "properties": { "wfpid": 78, "name": "Gopane", "status": "Open", "customs": "Yes", "iso3_1": "ZAF", "iso3_2": "BWA", "locprecision": "Unknown", "latitude": "-25.31667", "longitude": "25.76667", "wfpregion": "OMJ", "lastcheckdate": null, "remarks": null, "source": null, "createdate": "2013-01-01T00:00:00", "updatedate": "2014-01-07T09:35:41.242" }, "geometry": { "type": "Point", "coordinates": [ 25.76667, -25.31667 ] } }
,
{ "type": "Feature", "properties": { "wfpid": 215, "name": "Al Arida", "status": "Open", "customs": "Unknown", "iso3_1": "SYR", "iso3_2": "LBN", "locprecision": "Unknown", "latitude": "34.64232", "longitude": "35.97444", "wfpregion": "OMC", "lastcheckdate": null, "remarks": null, "source": null, "createdate": "2013-01-01T00:00:00", "updatedate": "2014-01-07T09:32:50.265" }, "geometry": { "type": "Point", "coordinates": [ 35.97444, 34.64232 ] } }
,
{ "type": "Feature", "properties": { "wfpid": 209, "name": "Jur", "status": "Open", "customs": "Unknown", "iso3_1": "SSD", "iso3_2": "SDN", "locprecision": "Unknown", "latitude": "9.41745", "longitude": "28.42836", "wfpregion": "OMN", "lastcheckdate": null, "remarks": null, "source": null, "createdate": "2013-01-01T00:00:00", "updatedate": "2014-01-07T09:33:13.491" }, "geometry": { "type": "Point", "coordinates": [ 28.42836, 9.41745 ] } }
,
{ "type": "Feature", "properties": { "wfpid": 157, "name": "Erez (Beit Hannoun)", "status": "Open", "customs": "Yes", "iso3_1": "ISR", "iso3_2": "ISR", "locprecision": "Unknown", "latitude": "31.55905", "longitude": "34.54333", "wfpregion": "OMC", "lastcheckdate": null, "remarks": null, "source": null, "createdate": "2013-01-01T00:00:00", "updatedate": "2014-01-07T09:33:34.832" }, "geometry": { "type": "Point", "coordinates": [ 34.54333, 31.55905 ] } }
,
{ "type": "Feature", "properties": { "wfpid": 3, "name": "Farab", "status": "Open", "customs": "Yes", "iso3_1": "TKM", "iso3_2": "UZB", "locprecision": "Unknown", "latitude": "39.17139", "longitude": "63.60306", "wfpregion": "OMC", "lastcheckdate": null, "remarks": null, "source": null, "createdate": "2013-01-01T00:00:00", "updatedate": "2013-11-11T11:35:48.272" }, "geometry": { "type": "Point", "coordinates": [ 63.60306, 39.17139 ] } }
,
{ "type": "Feature", "properties": { "wfpid": 7, "name": "Goba", "status": "Open", "customs": "Yes", "iso3_1": "MOZ", "iso3_2": "SWZ", "locprecision": "Unknown", "latitude": "-26.20000", "longitude": "32.13333", "wfpregion": "OMJ", "lastcheckdate": null, "remarks": null, "source": null, "createdate": "2013-01-01T00:00:00", "updatedate": null }, "geometry": { "type": "Point", "coordinates": [ 32.13333, -26.2 ] } }
,
{ "type": "Feature", "properties": { "wfpid": 75, "name": "Busanza", "status": "Open", "customs": "Yes", "iso3_1": "COD", "iso3_2": "UGA", "locprecision": "Unknown", "latitude": "-1.22153", "longitude": "29.59669", "wfpregion": "OMJ", "lastcheckdate": null, "remarks": null, "source": null, "createdate": "2013-01-01T00:00:00", "updatedate": null },